DateofSale,Address,PostalCode,County,Price,NotFullMarketPrice,VATExclusive,DescriptionofProperty,PropertySizeDescription,lat,lng,address_types,YearMonth
2017-3-3,"86 MULLAGHMATT, MONAGHAN",,Monaghan,65000,Yes,No,Second-Hand Dwelling house /Apartment,,54.2406427,-6.9811991,street_address,201703
2020-12-3,"13 FABER GROVE, DUN LAOGHAIRE, DUBLIN",,Dublin,320000,No,No,Second-Hand Dwelling house /Apartment,,53.2832341,-6.1569253,street_address,202012
2010-9-7,"32 Allenton Drive, Tallaght",Dublin 24,Dublin,194000,No,No,Second-Hand Dwelling house /Apartment,,53.2717572,-6.3529862,street_address,201009
2019-10-29,"15 An Fuaran, Dublin Road, Oranmore",,Galway,345010,No,Yes,New Dwelling house /Apartment,,53.2695967,-8.9251211,street_address,201910
2019-11-7,"CHERRYORCHARD, ENNISCORTHY, WEXFORD",,Wexford,172000,No,No,Second-Hand Dwelling house /Apartment,,52.5069324,-6.58767,route,201911
2018-10-31,"7 CONVENT VIEW, ATHY, KILDARE",,Kildare,80000,No,No,Second-Hand Dwelling house /Apartment,,52.9939203,-6.9794729,street_address,201810
2019-4-30,"25 GRAND CANAL WHARF, SOUTH DOCK RD, RINGSEND DUBLIN 4",Dublin 4,Dublin,425000,No,No,Second-Hand Dwelling house /Apartment,,53.3423163,-6.2315578,premise,201904
2019-12-23,"66 THE MALTHOUSE, MARROWBONE LANE, DUBLIN 8",Dublin 8,Dublin,204000,No,No,Second-Hand Dwelling house /Apartment,,53.3384198,-6.2876395,premise,201912
2021-5-10,"GERNONSTOWN, SLANE, MEATH",,Meath,310000,No,No,Second-Hand Dwelling house /Apartment,,53.7220701,-6.5921024,route,202105
2021-8-11,"107 COLLEGE HILL, MULLINGAR, WESTMEATH",,Westmeath,300000,No,No,Second-Hand Dwelling house /Apartment,,53.5413185,-7.3583875,street_address,202108
2014-12-2,"10 GRATTAN TERRACE, DUNTAHEEN RD, FERMOY",,Cork,60000,No,No,Second-Hand Dwelling house /Apartment,,52.1354437,-8.2826606,premise,201412
2020-8-20,"23 Dodderbrook Lawn, Old Court Road, Ballycullen",,Dublin,361233.48,No,Yes,New Dwelling house /Apartment,,53.2700459,-6.3415907,establishment-general_contractor-point_of_interest,202008
2017-5-5,"THE SHOP, MAIN STREET, STONEYFORD",,Kilkenny,22500,No,No,Second-Hand Dwelling house /Apartment,,52.82247364,-7.74485287,,201705
2017-7-27,"13 RICHMOND HALL, MOUNT ST ANNES, MILLTOWN DUBLIN 6",Dublin 6,Dublin,301762.11,No,Yes,New Dwelling house /Apartment,greater than or equal to 38 sq metres and less than 125 sq metres,53.3115075,-6.2492764,premise,201707
2013-11-3,"106 Louisa Park, Station Road, Leixlip",,Kildare,76500,No,No,Second-Hand Dwelling house /Apartment,,53.3701396,-6.5047412,premise,201311
2017-4-13,"Apartment 78 Neptune Block, Honeypark, Dun-Laoghaire",,Dublin,308370.04,No,Yes,New Dwelling house /Apartment,greater than or equal to 38 sq metres and less than 125 sq metres,53.280867,-6.1455281,neighborhood-political,201704
2021-6-8,"ABBEY ST, BALLINROBE, MAYO",,Mayo,125000,No,No,Second-Hand Dwelling house /Apartment,,53.6260415,-9.2193674,route,202106
2016-8-2,"1 MCDERMOTT MEWS, GARDEN ST, BALLINA",,Mayo,82000,No,No,Second-Hand Dwelling house /Apartment,,54.1149444,-9.1595903,premise,201608
2015-11-16,"12 THE MEWS, RUSHBROOKE LINKS BALLYNOE, COBH",,Cork,90000,No,No,Second-Hand Dwelling house /Apartment,,51.8503357,-8.2942858,locality-political,201511
2016-2-12,"INVER, BARNATRA, BALLINA",,Mayo,140000,No,No,Second-Hand Dwelling house /Apartment,,54.1149482,-9.1550693,locality-political,201602
2014-9-7,"11 APARTMENT BLOCK, OXMANTOWN GREEN, BLACKHALL PLACE",,Dublin,197885,No,No,Second-Hand Dwelling house /Apartment,,53.3483576,-6.2816044,premise,201409
2016-12-20,"12 CABRA PARK, PHIBSBOROUGH, DUBLIN 7",Dublin 7,Dublin,402000,No,No,Second-Hand Dwelling house /Apartment,,53.3621164,-6.2773623,street_address,201612
2018-8-3,"14 ANNFIELD VIEW, CARPENTERSTOWN RD, CASTLEKNOCK DUBLIN 15",Dublin 15,Dublin,257500,No,No,Second-Hand Dwelling house /Apartment,,53.3760977,-6.3909926,street_address,201808
2016-4-2,"13 SUMMERSEAT GREEN, CLONEE, CO.MEATH",,Meath,160000,No,Yes,New Dwelling house /Apartment,greater than or equal to 38 sq metres and less than 125 sq metres,53.407742,-6.4445028,street_address,201604
2018-12-12,"56 PEMBROKE LANE, DUBLIN 2, DUBLIN",Dublin 2,Dublin,600000,No,No,Second-Hand Dwelling house /Apartment,,53.3364575,-6.2516719,street_address,201812
2014-7-31,"CARRICK LODGE, 13 CARRICK TERRACE, RIALTO",,Dublin,197000,No,No,Second-Hand Dwelling house /Apartment,,53.3358641,-6.2932673,premise,201407
2014-6-17,"62 MOUNT PROSPECT DR, CLONTARF, DUBLIN 3",Dublin 3,Dublin,541000,No,No,Second-Hand Dwelling house /Apartment,,53.368445,-6.1886244,street_address,201406
2011-8-20,"Crosstown, Wexford",,Wexford,260000,No,No,Second-Hand Dwelling house /Apartment,,52.3554415,-6.463532,neighborhood-political,201108
2014-7-15,"29 Curragh Hall Green, Tyrellstown, Castleknock",Dublin 15,Dublin,151900,No,No,Second-Hand Dwelling house /Apartment,,53.4151547,-6.3875499,street_address,201407
2018-10-12,"KILMAGLUSH, FENAGH RD, MYSHALL",,Carlow,300000,No,No,Second-Hand Dwelling house /Apartment,,52.7146188,-6.821348,neighborhood-political,201810
2019-5-4,"10 SLIEVEKEILE RD, WATERFORD CITY, WATERFORD",,Waterford,90000,No,No,Second-Hand Dwelling house /Apartment,,52.2543952,-7.1249043,street_address,201905
2016-6-9,"146 ACHA BHILE, LAHINCH ROAD",,Clare,68281,No,Yes,New Dwelling house /Apartment,greater than or equal to 38 sq metres and less than 125 sq metres,52.8587411,-9.0120637,premise,201606
2015-8-31,"491, Collins Avenue, Whitehall",Dublin 9,Dublin,465000,No,No,Second-Hand Dwelling house /Apartment,,53.3831441,-6.2469907,street_address,201508
2020-12-22,"29 COILL AOIBHINN, NEWTOWN RD, WEXFORD",,Wexford,345000,No,No,Second-Hand Dwelling house /Apartment,,52.3424518,-6.5049572,street_address,202012
2018-4-5,"55 THE COTSWALDS, CASTLEREDMOND, MIDLETON",,Cork,310000,No,No,Second-Hand Dwelling house /Apartment,,51.9048306,-8.1691485,street_address,201804
2015-12-17,"42 RED ARCHES DR, THE COAST, BALDOYLE DUBLIN 13",Dublin 13,Dublin,225000,No,No,Second-Hand Dwelling house /Apartment,,53.4020553,-6.1400771,street_address,201512
2015-1-19,"33 ST BRENDANS COTTAGES, IRISHTOWN, DUBLIN 4",Dublin 4,Dublin,296500,No,No,Second-Hand Dwelling house /Apartment,,53.3405174,-6.2237604,street_address,201501
2016-9-27,"3 Phelan Avenue, Royal Canal Park, Ashtown",Dublin 15,Dublin,308400,No,Yes,New Dwelling house /Apartment,greater than or equal to 38 sq metres and less than 125 sq metres,53.3761976,-6.3150048,street_address,201609
2015-12-18,"49 RIVERWALK, MAIN ST, CASTLEREA",,Roscommon,20500,No,No,Second-Hand Dwelling house /Apartment,,53.7686571,-8.4924537,locality-political,201512
2014-6-8,"Apartment 19, The Reeks Gateway, Killarney",,Kerry,32727,No,Yes,New Dwelling house /Apartment,greater than or equal to 38 sq metres and less than 125 sq metres,52.0681869,-9.5171266,premise,201406
2012-8-31,"13 Martello Court, Portmarnock",,Dublin,400000,No,No,Second-Hand Dwelling house /Apartment,,53.4347995,-6.1355539,street_address,201208
2010-8-30,"No. 7 Arranmore View, Roshin Acres, Burtonport",,Donegal,133762.11,No,Yes,New Dwelling house /Apartment,greater than or equal to 38 sq metres and less than 125 sq metres,54.9874345,-8.5350585,establishment-natural_feature,201008
2020-12-2,"17 SOMERTON PARK, BALLINLOUGH, CORK",,Cork,290000,No,No,Second-Hand Dwelling house /Apartment,,51.8876313,-8.4421162,street_address,202012
2020-10-12,"THE DIAMOND, CASTLEFIN, LIFFORD",,Donegal,67000,No,No,Second-Hand Dwelling house /Apartment,,54.802999,-7.5895814,locality-political,202010
2018-5-29,"38 St Edmunds Grove, Loman&#039;s Road",,Dublin,420000,No,No,New Dwelling house /Apartment,greater than or equal to 38 sq metres and less than 125 sq metres,52.82247364,-7.74485287,,201805
2016-2-17,"APT 26, ABBEY COURT, WEXFORD",,Wexford,113000,No,No,Second-Hand Dwelling house /Apartment,,52.3404204,-6.4658583,premise,201602
2017-12-21,"2 CASTLE VILLAGE PARK, CELBRIDGE, KILDARE",,Kildare,305000,No,No,Second-Hand Dwelling house /Apartment,,53.3517488,-6.5475764,street_address,201712
2017-3-15,"34 FINN ST, DUBLIN 7, DUBLIN",Dublin 7,Dublin,255000,No,No,Second-Hand Dwelling house /Apartment,,53.3529911,-6.2907442,street_address,201703
2019-5-20,"58 FINLAY PARK, OLD CARRAGH ROAD, NAAS",,Kildare,348017,No,Yes,New Dwelling house /Apartment,,53.2205272,-6.673657,street_address,201905
2012-9-24,"1 Lambourne Village, Clontarf",,Dublin,140000,No,No,Second-Hand Dwelling house /Apartment,,53.3644733,-6.2079402,street_address,201209
2021-4-23,"304 CUBES 3, BEACON SOUTH QUARTER, BLACKTHORN RD",Dublin 18,Dublin,383500,No,No,Second-Hand Dwelling house /Apartment,,53.2775421,-6.2166745,establishment-lodging-point_of_interest-shopping_mall,202104
2020-8-9,"29 TI NA RI, ATHENRY RD, LOUGHREA",,Galway,262000,No,No,Second-Hand Dwelling house /Apartment,,53.2037947,-8.5844394,street_address,202008
2020-11-19,"4 DRISARDEN, GORTLEE, LETTERKENNY",,Donegal,125000,No,No,Second-Hand Dwelling house /Apartment,,54.9569281,-7.7200698,street_address,202011
2017-10-31,"8 CARRICK CRESCENT, BALLYBOFEY, DONEGAL",,Donegal,120000,Yes,No,Second-Hand Dwelling house /Apartment,,54.7930934,-7.7962852,street_address,201710
2013-6-9,"RAHEEN, BANTRY",,Cork,119000,No,No,Second-Hand Dwelling house /Apartment,,51.6800803,-9.4525763,locality-political,201306
2013-1-30,"18 Glen Corrin, Watergrasshill, Cork",,Cork,150000,No,Yes,New Dwelling house /Apartment,greater than or equal to 38 sq metres and less than 125 sq metres,52.0166368,-8.3396932,establishment-point_of_interest,201301
2018-10-26,"38 ROSSANA CLOSE, ASHFORD, WICKLOW",,Wicklow,38000,Yes,No,Second-Hand Dwelling house /Apartment,,53.0032685,-6.108809,street_address,201810
2016-1-19,"4 GLEANN ARAS VIEW, GRENAGH, CORK",,Cork,180000,Yes,No,Second-Hand Dwelling house /Apartment,,52.0115142,-8.6082199,street_address,201601
2011-12-9,"Lissacarrow, Fuerty",,Roscommon,150000,No,No,Second-Hand Dwelling house /Apartment,,53.6131024,-8.2591228,neighborhood-political,201112
2016-10-11,"47 TRIOG MANOR, PORTLAOISE, LAOIS",,Laois,120000,Yes,No,Second-Hand Dwelling house /Apartment,,53.0426907,-7.304625,street_address,201610
2021-5-5,"80 Longview Avenue, Millers Glen, Swords",,Dublin,400881,No,Yes,New Dwelling house /Apartment,,53.4716715,-6.2427219,establishment-point_of_interest,202105
2010-5-2,"Apartment 24, Green Park, Dundalk",,Louth,387665,No,Yes,New Dwelling house /Apartment,greater than 125 sq metres,53.9979451,-6.405957,locality-political,201005
2014-10-1,"3 Beverton Court, Donabate",,Dublin,75000,No,No,Second-Hand Dwelling house /Apartment,,53.4879216,-6.1586016,street_address,201410
2021-5-2,"37 THE ELMS, LOUGH NA GLACK, CARRICKMACROSS",,Monaghan,101321.59,No,Yes,New Dwelling house /Apartment,,53.9667257,-6.6991436,establishment-natural_feature,202105
2017-7-20,"CASTLETOWN, TARA, CO MEATH",,Meath,100000,Yes,No,Second-Hand Dwelling house /Apartment,,53.5893117,-6.6326481,neighborhood-political,201707
2020-8-20,"17 KINCORA DR, CLONTARF, DUBLIN 3",Dublin 3,Dublin,740000,No,No,Second-Hand Dwelling house /Apartment,,53.3644442,-6.2100901,street_address,202008
2013-2-28,"18 Saint Columbas Road, Greenhills, Dublin",Dublin 12,Dublin,123750,Yes,No,Second-Hand Dwelling house /Apartment,,53.3116835,-6.3396464,street_address,201302
2018-3-29,"13 GRACES PARK, DERRINTORN, CARBURY",,Kildare,218000,No,No,Second-Hand Dwelling house /Apartment,,53.3369091,-6.9331613,street_address,201803
2014-10-7,"16 GRANVILLE RD, DUN LAOGHAIRE, DUBLIN",,Dublin,515000,No,No,Second-Hand Dwelling house /Apartment,,53.2638765,-6.1446243,street_address,201410
2020-3-11,"BALLINTUBBER, CLAREMORRIS, MAYO",,Mayo,84000,Yes,No,Second-Hand Dwelling house /Apartment,,53.7238764,-9.0017356,locality-political,202003
2018-5-6,"27 MELVILLE RISE, CITYSIDE, MEAKSTOWN DUBLIN 11",Dublin 11,Dublin,155000,No,No,Second-Hand Dwelling house /Apartment,,53.4027159,-6.2986397,street_address,201805
2015-3-27,"10 ELM COURT, THE PARK, KILLARNEY",,Kerry,172000,No,No,Second-Hand Dwelling house /Apartment,,52.06416,-9.491131,route,201503
2021-8-3,"4 BRENNANSTOWN AVE, CABINTEELY, DUBLIN 18",Dublin 18,Dublin,700000,No,No,Second-Hand Dwelling house /Apartment,,53.2573908,-6.1503517,street_address,202108
2014-10-17,"24 LIR PARK, CASTLEPOLLARD, WESTMEATH",,Westmeath,110000,No,No,Second-Hand Dwelling house /Apartment,,53.6808188,-7.2876937,street_address,201410
2013-10-31,"No 70, Friars Walk, Cork City",,Cork,15000,No,No,Second-Hand Dwelling house /Apartment,,51.8889486,-8.4793477,street_address,201310
2020-2-4,"6 SUMMERFIELDS, COBH, CO CORK",,Cork,175000,No,No,Second-Hand Dwelling house /Apartment,,51.8527831,-8.3046654,street_address,202002
2011-8-8,"44 Hermitage, Ennis",,Clare,73500,No,No,Second-Hand Dwelling house /Apartment,,52.8452045,-8.9918916,street_address,201108
2015-2-12,"9 BROOKHURST, COLLINS AVE, DUNMORE RD",,Waterford,230000,No,No,Second-Hand Dwelling house /Apartment,,52.2402585,-7.0745143,political-sublocality-sublocality_level_1,201502
2019-7-25,"39 MILLRACE RD, PHEONIX PARK RACECOURSE, CASTLEKNOCK DUBLIN 15",Dublin 15,Dublin,310000,No,No,Second-Hand Dwelling house /Apartment,,53.3727231,-6.3360501,route,201907
2016-2-17,"25 The Links, Elm Park, Merrion Road",Dublin 4,Dublin,167117,No,No,Second-Hand Dwelling house /Apartment,,53.3138802,-6.2074079,establishment-point_of_interest,201602
2017-10-31,"5 KINVARA AVE, NAVAN RD, DUBLIN 7",Dublin 7,Dublin,450000,No,No,Second-Hand Dwelling house /Apartment,,53.3691501,-6.3176884,street_address,201710
2019-9-17,"8 MAGENNIS SQ, MAGENNIS PLACE, DUBLIN 2",Dublin 2,Dublin,316500,No,No,Second-Hand Dwelling house /Apartment,,53.34499,-6.2480366,street_address,201909
2012-6-22,"28 Whitechurch Ave, Rathfarnham",Dublin 14,Dublin,103000,No,No,Second-Hand Dwelling house /Apartment,,53.2778362,-6.2911493,street_address,201206
2021-8-23,"13 RATH NA GLOINE, DROMISKIN, DUNDALK",,Louth,213000,No,No,Second-Hand Dwelling house /Apartment,,53.9217123,-6.4010092,locality-political,202108
2019-11-13,"DRUMCOLE, BELTURBET, CAVAN",,Cavan,265000,No,No,Second-Hand Dwelling house /Apartment,,54.1071201,-7.4766748,neighborhood-political,201911
2019-3-14,"No. 32, The Corner Site, Fairfield",,Kerry,96917,No,Yes,New Dwelling house /Apartment,,41.1408363,-73.2612615,locality-political,201903
2011-6-9,"22 Kincora Park, Clontarf",Dublin 3,Dublin,685000,No,No,Second-Hand Dwelling house /Apartment,,53.3613217,-6.2002292,street_address,201106
2010-3-12,"Carrowcashel, Riverstown",,Sligo,150000,No,No,Second-Hand Dwelling house /Apartment,,52.82247364,-7.74485287,,201003
2018-6-25,"Bunker's Hill, Curracloe, County Wexford",,Wexford,150000,No,Yes,New Dwelling house /Apartment,greater than or equal to 38 sq metres and less than 125 sq metres,52.3931816,-6.3921174,locality-political,201806
2010-8-20,"42 Thornberry, Truskey West, Barna",,Galway,200000,No,Yes,New Dwelling house /Apartment,less than 38 sq metres,53.2534352,-9.1556726,street_address,201008
2018-12-1,"23 HILLVIEW EST, DUNSHAUGHLIN, MEATH",,Meath,150000,No,No,Second-Hand Dwelling house /Apartment,,53.516827,-6.5416325,street_address,201812
2017-8-28,"26 KILQUADE HILL, KILQUADE, WICKLOW",,Wicklow,685000,No,No,Second-Hand Dwelling house /Apartment,,53.1001559,-6.084816,street_address,201708
2016-7-4,"APT 6, RAHENY WOOD, RAHENY RD DUBLIN 5",Dublin 5,Dublin,162000,No,No,Second-Hand Dwelling house /Apartment,,53.3835247,-6.1772181,premise,201607
2018-7-12,"ROSE COTTAGE, GLENADE, LEITRIM",,Leitrim,45000,No,No,Second-Hand Dwelling house /Apartment,,54.16593,-8.26903,locality-political,201807
2012-9-17,"Baptistgrange, Lisronagh, Clonmel",,Tipperary,185000,No,No,Second-Hand Dwelling house /Apartment,,52.417443,-7.7028889,locality-political,201209
2015-9-14,"7 LONGVIEW AVENUE, MILLERS GLEN, SWORDS",,Dublin,246651.59,No,Yes,New Dwelling house /Apartment,greater than or equal to 38 sq metres and less than 125 sq metres,53.4716715,-6.2427219,establishment-point_of_interest,201509
2019-9-4,"FYANSTOWN, KELLS, COUNTY MEATH",,Meath,155000,No,No,Second-Hand Dwelling house /Apartment,,53.7232055,-6.8188456,neighborhood-political,201909
2016-7-4,"18 HARBOUR COURT, GEORGES PLACE, DUN LAOGHAIRE",,Dublin,460000,No,No,Second-Hand Dwelling house /Apartment,,53.2947752,-6.1393464,route,201607
2012-7-6,"17 Carriglea Downs, Dun Laoghaire",,Dublin,235000,No,No,Second-Hand Dwelling house /Apartment,,53.2776227,-6.3402862,street_address,201207
2016-12-8,"CASTLEROCHE, DUNDALK, CO LOUTH",,Louth,51500,No,No,Second-Hand Dwelling house /Apartment,,53.9979451,-6.405957,locality-political,201612
2018-5-14,"MAIN ST, TARBERT, CO KERRY",,Kerry,35000,No,No,Second-Hand Dwelling house /Apartment,,52.5725966,-9.3751312,locality-political,201805
2019-5-2,"4 KILLRAINEY HOUSE, CHURCH RD, MOYCULLEN",,Galway,90000,No,No,Second-Hand Dwelling house /Apartment,,53.3410993,-9.1759725,premise,201905
2017-1-20,"97 GREENFIELDS, ROSBRIEN, LIMERICK",,Limerick,160000,No,No,Second-Hand Dwelling house /Apartment,,52.6469838,-8.6332899,street_address,201701
2020-1-15,"FIAN, TARMONSCROSS, WATERVILLE",,Kerry,160000,No,No,Second-Hand Dwelling house /Apartment,,52.82247364,-7.74485287,,202001
2016-8-12,"1 Barnwell Square West, Barnwell Square, Hansfield",Dublin 15,Dublin,263777.54,No,Yes,New Dwelling house /Apartment,greater than or equal to 38 sq metres and less than 125 sq metres,53.3916459,-6.4435736,street_address,201608
2012-12-12,"33 Clifden Glen, Clifden, Co. Galway",,Galway,59995,No,No,Second-Hand Dwelling house /Apartment,,53.4879208,-9.9842488,street_address,201212
2010-2-17,"195 Rusheeny Village, Clonsilla",,Dublin,205000,No,No,Second-Hand Dwelling house /Apartment,,53.3868977,-6.4244504,neighborhood-political,201002
2021-3-2,"28 KNOCKAULIN DRIVE, FERBANE, COUNTY OFFALY",,Offaly,160000,No,No,Second-Hand Dwelling house /Apartment,,53.2769212,-7.829811,premise,202103
2015-12-11,"4 Maudlin Road, Kells",,Meath,108000,No,No,Second-Hand Dwelling house /Apartment,,53.7318041,-6.8732367,street_address,201512
2018-7-3,"153 SALLINS BRIDGE, SALLINS, KILDARE",,Kildare,370000,No,No,Second-Hand Dwelling house /Apartment,,53.2508061,-6.6632402,street_address,201807
2016-8-9,"22 RIVERSTOWN HOUSE, SPENCER DOCK, DUBLIN 1",Dublin 1,Dublin,315000,No,No,Second-Hand Dwelling house /Apartment,,53.3499576,-6.2379825,establishment-point_of_interest,201608
2021-5-18,"BALLINANIMA, KILFINANE, COUNTY LIMERICK",,Limerick,178000,No,No,Second-Hand Dwelling house /Apartment,,52.3586898,-8.4672787,locality-political,202105
2018-12-19,"109 BEECHWOOD COURT, STILLORGAN RD, STILLORGAN",,Dublin,400000,No,No,Second-Hand Dwelling house /Apartment,,53.2813387,-6.1912257,street_address,201812
2017-3-29,"131 AN CAISLEAN, BALLINCOLLIG, CORK",,Cork,210000,No,No,Second-Hand Dwelling house /Apartment,,51.8841976,-8.6047483,political-sublocality-sublocality_level_1,201703
2016-3-22,"51 BROOKLAWN, STRANDVILE AVE EAST, CLONTARF DUBLIN 3",Dublin 3,Dublin,300000,No,No,Second-Hand Dwelling house /Apartment,,53.3654616,-6.2191449,street_address,201603
2015-7-8,"33 Castle Meadows, Skehard Road, CORK",,Cork,227000,No,No,Second-Hand Dwelling house /Apartment,,51.8920274,-8.3965072,street_address,201507
2015-9-30,"5 Mullawn Crescent, Tullow, County Carlow",,Carlow,110000,No,Yes,New Dwelling house /Apartment,greater than or equal to 38 sq metres and less than 125 sq metres,52.7978184,-6.7323992,street_address,201509
2012-11-28,"Apartment No. 5 The Green, Kensington Lodge, Rochestown Avenue  Dun Laoighaire",,Dublin,154000,No,No,Second-Hand Dwelling house /Apartment,,53.2780899,-6.1535517,premise,201211
2016-4-25,"UNIT 39, CARRAIG ABHAINN, MORTARSTOWN RD",,Carlow,65000,No,No,Second-Hand Dwelling house /Apartment,,52.8252731,-6.9383581,street_address,201604
2020-10-29,"67 EVERGREEN RD, CORK, CORK",,Cork,130000,No,No,Second-Hand Dwelling house /Apartment,,51.8903484,-8.4705201,street_address,202010
2013-2-13,"52 The Brambles, Pontoon Road, Castlebar",,Mayo,195000,No,No,Second-Hand Dwelling house /Apartment,,53.8674958,-9.2931394,street_address,201302
2017-10-3,"5 thorndale, delgany",,Wicklow,427313,No,Yes,New Dwelling house /Apartment,greater than or equal to 38 sq metres and less than 125 sq metres,53.134942,-6.0890809,street_address,201710
2015-4-24,"47 CROYDON GREEN, MARINO, DUBLIN 3",Dublin 3,Dublin,375000,No,No,Second-Hand Dwelling house /Apartment,,53.3669509,-6.2372236,street_address,201504
2016-4-22,"2 CAROLANS COURT & OTHER PROPERTIES, KILRONAN CASTLE, BALLYFARNON",,Roscommon,960000,No,No,Second-Hand Dwelling house /Apartment,,52.82247364,-7.74485287,,201604
2015-2-17,"THE COTTAGE, ARDAMINE, GOREY",,Wexford,90000,No,No,Second-Hand Dwelling house /Apartment,,52.61825,-6.22902,locality-political,201502
2015-11-25,"17  Monalin Hills, Newtownmountkennedy",,Wicklow,237004.39,No,Yes,New Dwelling house /Apartment,greater than or equal to 38 sq metres and less than 125 sq metres,53.0927815,-6.112023,locality-political,201511
2020-7-4,"NO 7 COLLEGE CLOSE, GRANBY ROW, CARLOW",,Carlow,93052,No,No,Second-Hand Dwelling house /Apartment,,52.8305439,-6.9312808,premise,202007
2016-8-18,"CHAPEL ST, KILKEE, CLARE",,Clare,205000,No,No,Second-Hand Dwelling house /Apartment,,52.6828228,-9.6444116,locality-political,201608
2011-6-23,"413 Carnlough Road, Cabra",Dublin 7,Dublin,85525,Yes,No,Second-Hand Dwelling house /Apartment,,53.3698008,-6.297153,street_address,201106
2015-2-17,"5 AN CRANNOG, MONAGHAN",,Monaghan,170500,No,Yes,New Dwelling house /Apartment,greater than or equal to 38 sq metres and less than 125 sq metres,54.2492434,-6.9683082,locality-political,201502
2012-9-8,"Oakwood, Redcross, Co. Wicklow",,Wicklow,210000,No,No,Second-Hand Dwelling house /Apartment,,52.8992102,-6.1731727,political-sublocality-sublocality_level_1,201209
2016-9-21,"26 TURVEY GROVE, DONABATE, DUBLIN",,Dublin,150000,No,No,Second-Hand Dwelling house /Apartment,,53.4867398,-6.1545098,street_address,201609
2012-6-22,"2 Luttrellstown Walk, Castleknock",,Dublin,225000,No,No,Second-Hand Dwelling house /Apartment,,53.3688263,-6.3931508,street_address,201206
2017-3-5,"15 MAPLE AVE, CASTLEKNOCK, DUBLIN 15",Dublin 15,Dublin,475000,No,No,Second-Hand Dwelling house /Apartment,,53.3784234,-6.3841563,street_address,201703
2014-3-21,"KNOCKAVADDY, FURBO, CO. GALWAY",,Galway,130000,No,No,Second-Hand Dwelling house /Apartment,,53.24918,-9.20495,locality-political,201403
2019-6-8,"APT 57 THE CRESCENT, FORTFIELD SQUARE, TERENURE",,Dublin,570000,No,No,Second-Hand Dwelling house /Apartment,,53.3043753,-6.3023652,route,201906
2014-3-26,"BOHERBOY, PAULSTOWN, CO KILKENNY",,Kilkenny,35000,No,No,Second-Hand Dwelling house /Apartment,,52.6813185,-7.0211221,locality-political,201403
2017-7-27,"APT 20 LAR NA CATHRACH, ABBEY TRINITY, TUAM",,Galway,40000,No,No,Second-Hand Dwelling house /Apartment,,53.5152733,-8.8540825,premise,201707
2016-8-10,"8, shantobar, ballinalee",,Longford,44052,No,Yes,New Dwelling house /Apartment,greater than or equal to 125 sq metres,53.7745413,-7.6561444,street_address,201608
2018-1-2,"28 HANOVER DOCK, HANOVER QUAY, DUBLIN 2",Dublin 2,Dublin,1500000,No,No,Second-Hand Dwelling house /Apartment,,53.3447538,-6.2380521,subpremise,201801
2021-2-7,"16 ST JOHNS TERRACE, ORMOND ST, NENAGH",,Tipperary,115000,No,No,Second-Hand Dwelling house /Apartment,,52.8698306,-8.1962075,premise,202102
2021-11-25,"45 Maple Hill, Castle Heights, Carrigaline",,Cork,262114.53,Yes,Yes,New Dwelling house /Apartment,,51.804497,-8.3980554,intersection,202111
2015-6-2,"7 THE SQUARE, SKERRIES, CO DUBLIN",,Dublin,200000,No,No,Second-Hand Dwelling house /Apartment,,53.5800899,-6.1107404,street_address,201506
2020-3-6,"11 CHESTNUTWALK, KILMUCKRIDGE, GOREY",,Wexford,162000,No,No,Second-Hand Dwelling house /Apartment,,52.5151362,-6.2825884,street_address,202003
2015-11-9,"7A Flaxmill Court, Flaxmill Lane, Drogheda",,Meath,58545.46,No,No,Second-Hand Dwelling house /Apartment,,53.7249626,-6.3428444,premise,201511
2015-2-17,"5 Prior Park Terrace, Clonmel",,Tipperary,105000,No,No,Second-Hand Dwelling house /Apartment,,52.3602723,-7.7026098,street_address,201502
2020-6-25,"11 Church Green, Ballinglanna, Glanmire",,Cork,334801,No,Yes,New Dwelling house /Apartment,,51.9213593,-8.3828011,neighborhood-political,202006
2018-7-25,"7 TEMPLE MANOR GROVE, GREENHILLS, DUBLIN 12",Dublin 12,Dublin,421500,No,No,Second-Hand Dwelling house /Apartment,,53.3065677,-6.3329589,street_address,201807
2014-12-17,"73 Preston Brook, Rathangan, Co Kildare",,Kildare,120704.84,No,Yes,New Dwelling house /Apartment,greater than or equal to 38 sq metres and less than 125 sq metres,53.2178053,-7.0064836,street_address,201412
2014-7-23,"DUNWORLEY, TIMOLEAGUE",,Cork,215000,No,No,Second-Hand Dwelling house /Apartment,,51.6432296,-8.7661887,locality-political,201407
2017-8-5,"18 AVONDALE HALL, 151 PARNELL ST, DUBLIN 1",Dublin 1,Dublin,150500,No,No,Second-Hand Dwelling house /Apartment,,53.3495933,-6.26903,subpremise,201708
2021-9-13,"22 TULLYVARRAGA CRESENT, SHANNON, CLARE",,Clare,255000,No,No,Second-Hand Dwelling house /Apartment,,52.7079995,-8.869295,street_address,202109
2018-7-13,"LECARROW, KNOCKROE, CROGHAN BOYLE",,Roscommon,171000,No,No,Second-Hand Dwelling house /Apartment,,43.895902,-75.3924083,locality-political,201807
2014-12-15,"LAMBSTOWN, GLYNN, WEXFORD",,Wexford,160000,No,No,Second-Hand Dwelling house /Apartment,,52.32847,-6.67698,locality-political,201412
2020-12-14,"DROMCLOGH EAST, BANTRY, CORK",,Cork,285000,No,No,Second-Hand Dwelling house /Apartment,,51.7149197,-9.3599934,neighborhood-political,202012
2021-5-28,"54 CLONARD ST, BALBRIGGAN, DUBLIN",,Dublin,215000,No,No,Second-Hand Dwelling house /Apartment,,53.6085307,-6.1866363,street_address,202105
2019-6-3,"CUILTYBOE, LOUGHLYNN, CASTLEREA",,Roscommon,68000,No,No,Second-Hand Dwelling house /Apartment,,53.7686571,-8.4924537,locality-political,201906
2021-2-11,"4 EDEN PARK AVE, DUBLIN 14, DUBLIN",Dublin 14,Dublin,640000,No,No,Second-Hand Dwelling house /Apartment,,53.287647,-6.227945,street_address,202102
2012-1-6,"7 Ard Glas, Ferbane",,Offaly,132500,No,Yes,New Dwelling house /Apartment,greater than or equal to 38 sq metres and less than 125 sq metres,53.2783351,-7.826088,street_address,201201
2018-3-16,"APT 142, 109 PARNELL ST, DUBLIN 1",Dublin 1,Dublin,185000,No,No,Second-Hand Dwelling house /Apartment,,53.3539497,-6.2575639,subpremise,201803
2017-2-27,"25 CEDARWOOD DR CASTLEHEIGHTS, KILMONEY RD, CARRIGALINE",,Cork,211538.46,No,No,Second-Hand Dwelling house /Apartment,,51.8024839,-8.4038401,street_address,201702
2014-7-23,"16 KEEPER RD, DRIMNAGH, DUBLIN 12",Dublin 12,Dublin,260000,No,No,Second-Hand Dwelling house /Apartment,,53.3320737,-6.3048782,street_address,201407
2011-5-31,"10 Beechpark Wood, Leixip",,Kildare,110132,No,Yes,New Dwelling house /Apartment,greater than or equal to 38 sq metres and less than 125 sq metres,53.3646395,-6.5232701,establishment-point_of_interest,201105
2013-6-28,"Tullaghboy, Connolly",,Clare,9190,No,No,Second-Hand Dwelling house /Apartment,,53.45359,-9.47047,locality-political,201306
2019-6-17,"14 CUIRT EANNA, LONG WALK, GALWAY",,Galway,300000,No,No,Second-Hand Dwelling house /Apartment,,53.2692766,-9.0522806,premise,201906
2021-8-30,"16 CLUAIN FRAOIGH, LANESBOROUGH ROAD, ROSCOMMON",,Roscommon,166000,No,No,Second-Hand Dwelling house /Apartment,,53.6374418,-8.17623,street_address,202108
2016-6-7,"75 CLONLEA, MOUNT OVAL VILLAGE, ROCHESTOWN RD",,Cork,222500,No,No,Second-Hand Dwelling house /Apartment,,51.8680308,-8.4070392,street_address,201606
2015-7-10,"4 LANGFIELD, DUBLIN ROAD, DUNDALK",,Louth,110000,No,No,Second-Hand Dwelling house /Apartment,,53.9864403,-6.3989332,street_address,201507
2014-11-27,"KILFINANE RD, BALLYORGAN, LIMERICK",,Limerick,160000,No,No,Second-Hand Dwelling house /Apartment,,52.3707356,-8.3533276,route,201411
2017-7-11,"24 GLENCAIRN WALK, SANDYFORD, DUBLIN 18",Dublin 18,Dublin,530000,No,No,Second-Hand Dwelling house /Apartment,,53.262547,-6.2092724,street_address,201707
2021-10-3,"65 STEEPLECHASE COURT, RATOATH, MEATH",,Meath,210000,No,No,Second-Hand Dwelling house /Apartment,,53.5104168,-6.4739866,street_address,202110
2012-10-30,"7 Tir Eda, Tobarteascain, Ennis",,Clare,105000,No,No,Second-Hand Dwelling house /Apartment,,52.837021,-8.9748269,street_address,201210
2016-3-31,"21 Mount Eagle Court, Leopardstown Heights, Dublin 18",Dublin 18,Dublin,585000,No,No,Second-Hand Dwelling house /Apartment,,53.2653959,-6.2131,street_address,201603
2016-1-20,"7 THE ELM COURTYARD, BELLVIEW WOODS, BALLYDOWNY",,Kerry,165000,No,No,Second-Hand Dwelling house /Apartment,,52.0690248,-9.527885,street_address,201601
2018-5-28,"COPPER BEECH COTTAGE, BALLINAHOUN, FERMOY",,Cork,80000,No,No,Second-Hand Dwelling house /Apartment,,52.1372719,-8.2812256,locality-political,201805
2017-11-16,"1 ASHE WAY, KNOCKSEDAN DEMENSE, SWORDS",,Dublin,392070.48,No,Yes,New Dwelling house /Apartment,greater than or equal to 38 sq metres and less than 125 sq metres,53.4557467,-6.2197406,locality-political,201711
2018-11-13,"GORTGARRA, ARRANMORE ISLAND, CO DONEGAL",,Donegal,77000,No,No,Second-Hand Dwelling house /Apartment,,54.9822281,-8.5052,neighborhood-political,201811
2018-12-7,"2 SOUTHVILLE GARDENS, BALLINACURRA, LIMERICK",,Limerick,240000,No,No,Second-Hand Dwelling house /Apartment,,52.6486694,-8.6382276,street_address,201812
2018-2-28,"1 LOWER PRINCE EDWARD TCE, BLACKROCK, DUBLIN",,Dublin,1840000,No,No,Second-Hand Dwelling house /Apartment,,53.2965837,-6.1801825,premise,201802
2019-1-23,"19 CARTRUN BREAC, LISBRACK, LONGFORD",,Longford,37250,No,No,Second-Hand Dwelling house /Apartment,,53.7374224,-7.8085049,street_address,201901
2014-8-12,"17 WOODLANDS VALE, ARKLOW, WICKLOW",,Wicklow,103500,No,No,Second-Hand Dwelling house /Apartment,,52.7957102,-6.1790443,street_address,201408
2011-2-16,"Churchtown, Newcastlewest",,Limerick,137160,No,Yes,New Dwelling house /Apartment,greater than or equal to 38 sq metres and less than 125 sq metres,52.4591192,-9.0725814,route,201102
2012-1-20,"12 Old Cross Square, Monaghan",,Monaghan,80000,No,No,Second-Hand Dwelling house /Apartment,,54.2463446,-6.9651089,street_address,201201
2018-8-14,"30 St. Helen's Drive, St. Helen's, Adamstown",,Dublin,325991.18,No,Yes,New Dwelling house /Apartment,greater than or equal to 38 sq metres and less than 125 sq metres,53.3412327,-6.4661996,street_address,201808
2016-4-28,"49 Sion Hill Park, Drumcondra",,Dublin,519823,No,Yes,New Dwelling house /Apartment,greater than or equal to 38 sq metres and less than 125 sq metres,53.3767357,-6.2375702,street_address,201604
2011-11-28,"52 Blackthorn Close, Portmarnock, County Dublin",,Dublin,390000,No,No,Second-Hand Dwelling house /Apartment,,53.4347156,-6.1288947,street_address,201111
2012-12-20,"Derryvrin, Abbeydorney",,Kerry,187000,No,No,Second-Hand Dwelling house /Apartment,,52.346618,-9.6879095,locality-political,201212
2015-4-9,"No. 17 The Square, Aubrey Manor, Rathcoole",,Dublin,383259.91,No,Yes,New Dwelling house /Apartment,greater than 125 sq metres,53.2821341,-6.4701141,establishment-point_of_interest,201504
2015-7-1,"RATHBAWN LODGE, TULLOW, CARLOW",,Carlow,305000,No,No,Second-Hand Dwelling house /Apartment,,52.8224782,-6.7674765,clothing_store-establishment-point_of_interest-store,201507
2019-10-25,"LEA RD, PORTARLINGTON, LAOIS",,Laois,317500,No,No,Second-Hand Dwelling house /Apartment,,53.161211,-7.1877574,locality-political,201910
2014-1-8,"12 HAZELBROOK COURT, TERENURE, DUBLIN 6W",,Dublin,425000,No,No,Second-Hand Dwelling house /Apartment,,53.3122113,-6.2919156,subpremise,201401
2015-4-2,"CAMLA, KILLYCUSHILL, MONAGHAN",,Monaghan,90000,No,No,Second-Hand Dwelling house /Apartment,,54.2492434,-6.9683082,locality-political,201504
2019-9-19,"92 COLLEGE AVE, MOUNTMELLICK, LAOIS",,Laois,139000,No,No,Second-Hand Dwelling house /Apartment,,53.1207075,-7.3252502,street_address,201909
2021-8-19,"8 CHERRY ORCHARD, BROOMFIELD VILLAGE, MIDLETON",,Cork,177000,No,No,Second-Hand Dwelling house /Apartment,,51.9143321,-8.1726276,locality-political,202108
2016-8-1,"Apartment 10, Cumberland Row, North Cumberland Street",Dublin 1,Dublin,230000,No,No,Second-Hand Dwelling house /Apartment,,53.3529992,-6.258271,premise,201608
2012-7-9,"17 The Square (Arcadia Court), Skerries",,Dublin,215000,No,No,Second-Hand Dwelling house /Apartment,,53.5805585,-6.1115129,premise,201207
2014-10-10,"BALLINTIM, CAMOLIN, ENNISCORTHY",,Wexford,340000,No,No,Second-Hand Dwelling house /Apartment,,52.5031135,-6.5727721,locality-political,201410
2017-12-10,"ROSS, KILBAHA, CO CLARE",,Clare,60000,No,No,Second-Hand Dwelling house /Apartment,,52.5705484,-9.8616683,locality-political,201712
2019-10-29,"3 CUCHULAINN HEIGHTS, CARLINGFORD, CO LOUTH",,Louth,330000,No,No,Second-Hand Dwelling house /Apartment,,54.0358224,-6.1832624,street_address,201910
2011-2-12,"22 Ben Eadair Road, Stoneybatter",Dublin 7,Dublin,70000,No,No,Second-Hand Dwelling house /Apartment,,53.3534932,-6.2896815,street_address,201102
2019-7-15,"41 AYRFIELD DRIVE, AYRFIELD, DUBLIN 13",Dublin 13,Dublin,260000,Yes,No,Second-Hand Dwelling house /Apartment,,53.3946883,-6.188067,street_address,201907
2021-9-16,"BALLYFERNOGUE, CAMPILE, WEXFORD",,Wexford,315000,No,No,Second-Hand Dwelling house /Apartment,,52.2876617,-6.9412808,locality-political,202109
2010-6-1,"Scrine, Athleauge, Co. Roscommon",,Roscommon,195000,No,Yes,New Dwelling house /Apartment,greater than 125 sq metres,53.5580131,-8.1715684,neighborhood-political,201006
2014-8-10,"69 ANNAMOE RD, CABRA, DUBLIN 7",Dublin 7,Dublin,385000,No,No,Second-Hand Dwelling house /Apartment,,53.3599604,-6.2887169,street_address,201408
2018-3-20,"5 THE CRESCENT, PARK WEST POINTE, YEATS WAY DUBLIN 22",Dublin 12,Dublin,190000,No,No,Second-Hand Dwelling house /Apartment,,53.3329699,-6.3779452,premise,201803
2016-12-20,"9 FAIRVIEW, BIRR, OFFALY",,Offaly,115000,Yes,No,Second-Hand Dwelling house /Apartment,,53.0998242,-7.9120634,street_address,201612
2017-3-23,"42A DRUMMARTIN PARK, GOATSTOWN, DUBLIN 14",,Dublin,10000,No,No,Second-Hand Dwelling house /Apartment,,53.2871664,-6.2243829,subpremise,201703
2016-4-26,"59 MAIGH RIOCAIRD, CASTLEGAR VILLAGE, HEADFORD RD",,Galway,166000,No,No,Second-Hand Dwelling house /Apartment,,53.2977957,-9.02445,street_address,201604
2017-5-10,"43 LORETTO PK, FRIARS WALK, CORK",,Cork,211000,No,No,Second-Hand Dwelling house /Apartment,,51.8845974,-8.4781802,street_address,201705
2013-11-7,"Clash Road, Abbeyfeale",,Limerick,20000,No,No,Second-Hand Dwelling house /Apartment,,52.37822,-9.3009,locality-political,201311
2021-10-2,"2 ST MARYS TERRACE, ST MARYS RD, KILLARNEY",,Kerry,105000,No,No,Second-Hand Dwelling house /Apartment,,52.0613724,-9.5141028,establishment-lodging-point_of_interest,202110
2019-11-29,"19 TEMPLEROAN GREEN, RATHFARNHAM, DUBLIN 14",Dublin 16,Dublin,395000,No,No,Second-Hand Dwelling house /Apartment,,53.2811558,-6.3089551,street_address,201911
2021-1-19,"59 KINGSWOOD, BLACKROCK RD, DUNDALK",,Louth,255000,No,No,Second-Hand Dwelling house /Apartment,,53.9897523,-6.3715263,street_address,202101
2021-3-31,"ST. JOSEPHS, RAILWAY VIEW, ATHLONE",,Westmeath,301000,No,No,Second-Hand Dwelling house /Apartment,,53.42535,-7.93884,route,202103
2018-8-28,"42 WEAVERS HALL, LEVMOSS PARK, THE GALLOPS DUBLIN 18",Dublin 18,Dublin,325000,No,No,Second-Hand Dwelling house /Apartment,,53.2639518,-6.1984184,establishment-point_of_interest,201808
2016-8-12,"13 HAZELVILLE, ONSLOW GARDENS COMMONS RD, CORK",,Cork,200000,No,No,Second-Hand Dwelling house /Apartment,,51.9182201,-8.4873998,street_address,201608
2010-1-28,"15 Lanesborough Mews, St. Margarets  Finglas, Dublin 11",,Dublin,185000,No,No,Second-Hand Dwelling house /Apartment,,53.4026393,-6.2939188,premise,201001
2017-7-12,"9 RAMLEH HALL, CONVENT AVE, MOUNT ST ANNES DUBLIN 6",Dublin 6,Dublin,480000,No,No,Second-Hand Dwelling house /Apartment,,53.3127616,-6.2494189,premise,201707
2019-6-25,"26 LOWER BELADD, STRADBALLY RD, PORTLAOISE",,Laois,190000,No,No,Second-Hand Dwelling house /Apartment,,53.0326523,-7.275291,street_address,201906
2013-10-10,"8 The Quays, Harbour Point, Longford",,Longford,24000,No,No,Second-Hand Dwelling house /Apartment,,53.724596,-7.8007409,premise,201310
2015-5-11,"8 BEECH GROVE, JOHNSTOWN WOOD, NAVAN",,Meath,177500,No,No,Second-Hand Dwelling house /Apartment,,53.6423727,-6.6539862,street_address,201505
2018-3-29,"15 THE MAPLES, BIRD AVENUE, CLONSKEAGH",Dublin 14,Dublin,656000,No,No,Second-Hand Dwelling house /Apartment,,53.3060128,-6.2413964,street_address,201803
2021-10-20,"35 SWANS NEST AVENUE, KILBARRACK, DUBLIN 5",Dublin 5,Dublin,156000,Yes,No,Second-Hand Dwelling house /Apartment,,53.3891377,-6.1616723,street_address,202110
2013-8-28,"Apt. 6  Mountgarrett Lane, Irishtown, New Ross",,Wexford,30000,No,No,Second-Hand Dwelling house /Apartment,,52.3986518,-6.939086,street_address,201308
2011-6-1,"13 Riversdale Court, Monkstown",,Dublin,200000,No,No,Second-Hand Dwelling house /Apartment,,53.2929877,-6.1625882,premise,201106
2019-9-4,"8 Park Crescent, Hansfield Wood, Hansfield",Dublin 15,Dublin,339207,No,Yes,New Dwelling house /Apartment,,53.38789,-6.4357411,street_address,201909
2014-4-4,"27 An Crannog, Kingscourt Road, Carrickmacross",,Monaghan,28333,No,Yes,New Dwelling house /Apartment,greater than or equal to 38 sq metres and less than 125 sq metres,53.9726409,-6.7274514,route,201404
2015-7-31,"151 Killester Avenue, Killester",Dublin 5,Dublin,150000,No,No,Second-Hand Dwelling house /Apartment,,53.3756409,-6.2092334,street_address,201507
2017-10-5,"20 WOOD GREEN, FOREST PARK, DROMAHAIR",,Leitrim,135000,No,No,Second-Hand Dwelling house /Apartment,,54.2311196,-8.2920804,street_address,201710
2017-9-22,"16 Corrybeg Way, Templeogue, Dublin 6W",Dublin 6w,Dublin,722467,No,Yes,New Dwelling house /Apartment,greater than or equal to 125 sq metres,53.2945447,-6.3108662,subpremise,201709
2016-10-13,"2B BELMONT, ST CONLANS RD, NENAGH",,Tipperary,137500,No,No,Second-Hand Dwelling house /Apartment,,52.8674032,-8.2096917,route,201610
2011-1-9,"15 The Close, Fox Lodge wood, Ballybib  Rathoath",,Meath,370000,No,No,Second-Hand Dwelling house /Apartment,,53.5125527,-6.4338112,neighborhood-political,201101
2019-2-9,"29 OROURKE PARK, SALLYNOGGIN, DUBLIN",,Dublin,420000,No,No,Second-Hand Dwelling house /Apartment,,53.2782979,-6.1422826,street_address,201902
2014-10-20,"62 GLENMORE WOOD, MULLINGAR, WESTMEATH",,Westmeath,127500,No,No,Second-Hand Dwelling house /Apartment,,53.5227637,-7.3252995,street_address,201410
2015-8-9,"36 PADDOCKS VIEW, LUCAN, ADAMSTOWN",,Dublin,268000,No,No,Second-Hand Dwelling house /Apartment,,53.3490527,-6.4624352,street_address,201508
2020-9-21,"STATION RD, DULEEK, MEATH",,Meath,295000,No,No,Second-Hand Dwelling house /Apartment,,53.6667311,-6.418342,route,202009
2017-12-19,"5A THORMOND VILLAGE, BALLYGRENNAN, CO LIMERICK",,Limerick,35000,No,No,Second-Hand Dwelling house /Apartment,,52.6819535,-8.6600791,street_address,201712
2020-3-13,"APT 9 THE ELMS, PELLETSTOWN MANOR, ASHTOWN DUBLIN 15",Dublin 15,Dublin,251000,No,No,Second-Hand Dwelling house /Apartment,,53.3770893,-6.3227312,premise,202003
2021-6-17,"4 THE WELL, BALLINLOUGH RD, CORK",,Cork,215000,No,No,Second-Hand Dwelling house /Apartment,,51.8882931,-8.4400982,premise,202106
2019-8-11,"61 Stoneleigh, Craddockstown, Naas",,Kildare,250000,Yes,Yes,New Dwelling house /Apartment,,53.2056856,-6.6511049,route,201908
2014-7-2,"57 SEABOURNE VIEW, GREYSTONES, WICKLOW",,Wicklow,100000,No,No,Second-Hand Dwelling house /Apartment,,53.1291777,-6.0613623,street_address,201407
2019-7-31,"TURIN, MOUNTNUGENT, CO. CAVAN",,Cavan,245000,No,No,Second-Hand Dwelling house /Apartment,,53.8179409,-7.2563058,locality-political,201907
2021-4-26,"31 Oakfield, Park Road, Killarney",,Kerry,275000,No,Yes,New Dwelling house /Apartment,,52.0591298,-9.4863058,street_address,202104
2016-10-6,"No.46 Ballygossan Park, Golf Links Road, Skerries",,Dublin,251100,No,Yes,New Dwelling house /Apartment,greater than or equal to 38 sq metres and less than 125 sq metres,53.5696159,-6.1112581,street_address,201610
2021-6-29,"1 HIGH ST, ARDCLONE, PILTOWN",,Kilkenny,141000,No,No,Second-Hand Dwelling house /Apartment,,52.3402334,-7.3303325,neighborhood-political,202106
2017-3-28,"ST MARTINS, CAHERLEAHEEN, TRALEE",,Kerry,160000,No,No,Second-Hand Dwelling house /Apartment,,52.242819,-9.675586,establishment-point_of_interest-primary_school-school,201703
2021-10-14,"SUCKFIELD, SHANNONBRIDGE RD, BALLINASLOE",,Roscommon,146000,No,No,Second-Hand Dwelling house /Apartment,,53.3256401,-8.1998496,route,202110
2011-4-13,"No. 5 St. James Court, Cabra, Kingscourt",,Cavan,255506.6,No,Yes,New Dwelling house /Apartment,greater than 125 sq metres,41.8858604,-87.6490707,bar-establishment-food-point_of_interest-restaurant,201104
2015-6-26,"18 IVY COURT, BROOMFIELD VILLAGE, BROOMFIELD",,Cork,115000,No,No,Second-Hand Dwelling house /Apartment,,39.9205411,-105.0866504,locality-political,201506
2017-11-12,"32  The Gallops, Kinnegad Road",,Meath,229075,No,Yes,New Dwelling house /Apartment,greater than or equal to 38 sq metres and less than 125 sq metres,53.552337,-6.8014488,street_address,201711
2015-1-23,"51 Juliet Square, St Edmunds, Palmerstown",Dublin 20,Dublin,146550,No,No,Second-Hand Dwelling house /Apartment,,53.354224,-6.4078825,premise,201501
2014-12-9,"4 Alaan Park, Stranorlar",,Donegal,180000,No,Yes,New Dwelling house /Apartment,greater than 125 sq metres,54.8111835,-7.7648629,street_address,201412
2021-4-15,"APT 1 - 67, THE CARLTON, HENRY ST",,Limerick,11250000,No,No,Second-Hand Dwelling house /Apartment,,52.82247364,-7.74485287,,202104
2021-4-5,"26 Oldtown Woods, Celbridge",,Kildare,348017.62,No,Yes,New Dwelling house /Apartment,,53.3401866,-6.5568122,route,202104
2021-2-18,"CARNSHANNAGH, RAPHOE, CO DONEGAL",,Donegal,55000,No,No,Second-Hand Dwelling house /Apartment,,54.8896913,-7.5561618,neighborhood-political,202102
2010-12-21,"Grattan Street, Ballymote",,Sligo,98000,No,No,Second-Hand Dwelling house /Apartment,,54.0898288,-8.5171827,locality-political,201012
2015-9-25,"67 BEECHMOUNT, GREEN RD, NEWBRIDGE",,Kildare,252000,No,No,Second-Hand Dwelling house /Apartment,,53.168359,-6.8078847,street_address,201509
2015-11-26,"35 KILMAINHAMWOOD RETIREMENT VILLAG, KILMAINHAMWOOD, KELLS",,Meath,55000,No,No,Second-Hand Dwelling house /Apartment,,53.8438112,-6.8036058,street_address,201511
2012-11-12,"Altmor, Brighton Road, Foxrock",,Dublin,1700000,No,No,Second-Hand Dwelling house /Apartment,,53.2597236,-6.1768085,premise,201211
2015-12-14,"286 Clontarf Road, Clontarf",Dublin 3,Dublin,825000,No,No,Second-Hand Dwelling house /Apartment,,53.359942,-6.1857991,street_address,201512
2015-9-7,"CARROWHUBBOCK SOUTH, INNISCRONE, SLIGO",,Sligo,105000,No,No,Second-Hand Dwelling house /Apartment,,54.2208719,-9.0964961,neighborhood-political,201509
2016-1-22,"21 BALLYTORE RD, RATHFARNHAM, DUBLIN 14",Dublin 14,Dublin,660000,No,No,Second-Hand Dwelling house /Apartment,,53.3029802,-6.2796841,street_address,201601
2020-7-15,"45 Rose Drive, Rath Ullord, Bonnettsrath Road",,Kilkenny,330400,No,Yes,New Dwelling house /Apartment,,52.67097,-7.23557,locality-political,202007
2018-8-30,"2 Aston Village, Drogheda",,Louth,223671.88,No,Yes,New Dwelling house /Apartment,greater than or equal to 38 sq metres and less than 125 sq metres,53.7293555,-6.3313426,neighborhood-political,201808
2017-2-28,"AUBURN HOUSE, 266 HAROLDS CROSS RD, DUBLIN 6",,Dublin,370000,No,No,Second-Hand Dwelling house /Apartment,,53.3291013,-6.2761907,subpremise,201702
2018-8-13,"181 CLONROOSKE ABBEY, PORTLAOISE, CO LAOIS",,Laois,190000,No,No,Second-Hand Dwelling house /Apartment,,53.0461534,-7.3203724,street_address,201808
2018-9-25,"5 CUIRT NA HABHAINN, LAKEVIEW, CLAREGALWAY",,Galway,232155.34,No,No,Second-Hand Dwelling house /Apartment,,53.337805,-8.943574,street_address,201809
2021-9-24,"6 COIS NA HABHANN, BELCARRA, CASTLEBAR",,Mayo,155000,No,No,Second-Hand Dwelling house /Apartment,,53.8550014,-9.2879257,locality-political,202109
2015-1-12,"75 CARTUR MOR, CLYBAUN RD, GALWAY",,Galway,205000,No,No,Second-Hand Dwelling house /Apartment,,53.2733767,-9.1033241,street_address,201501
2017-10-8,"15 BROCKRA WALK, BELLINGHAM, MOUNTRATH ROAD PORTLAOISE",,Laois,162995,No,Yes,New Dwelling house /Apartment,greater than or equal to 38 sq metres and less than 125 sq metres,53.0309159,-7.3267427,street_address,201710
2019-12-9,"THE HAW, LIFFORD, DONEGAL",,Donegal,150000,No,No,Second-Hand Dwelling house /Apartment,,54.8200763,-7.5145871,route,201912
2014-12-23,"4 THE TURNPIKE, SANTRY CROSS, BALLYMUN",Dublin 11,Dublin,65000,No,No,Second-Hand Dwelling house /Apartment,,53.400369,-6.2650735,premise,201412
2018-6-21,"6 PRIORY ST, NEW ROSS, WEXFORD",,Wexford,42000,No,No,Second-Hand Dwelling house /Apartment,,52.3916649,-6.9468342,street_address,201806
2018-12-21,"16 BANK ST, TEMPLEMORE, CO TIPPERARY",,Tipperary,129500,No,No,Second-Hand Dwelling house /Apartment,,52.794802,-7.8398609,locality-political,201812
2015-6-17,"44 KINDLESTOWN PARK, GREYSTONES, WICKLOW",,Wicklow,215000,No,No,Second-Hand Dwelling house /Apartment,,53.1424304,-6.0797256,street_address,201506
2020-9-12,"6 CONGRESS AVENUE, DROGHEDA, CO LOUTH",,Louth,90000,No,No,Second-Hand Dwelling house /Apartment,,53.7087511,-6.3527562,street_address,202009
2016-12-16,"44 Chestnut Drive, Fruithill Manor, Graiguecullen",,Laois,154185.02,No,Yes,New Dwelling house /Apartment,greater than or equal to 38 sq metres and less than 125 sq metres,52.8381857,-6.9537624,route,201612
2019-10-25,"11 Longstone, Blessington Road, Craddockstown",,Kildare,343612.33,No,Yes,New Dwelling house /Apartment,,53.209318,-6.6416341,establishment-point_of_interest,201910
2018-9-26,"7 CASTLEKNOCK CROSS, CASTLEKNOCK",,Dublin,722466.96,No,Yes,New Dwelling house /Apartment,greater than or equal to 38 sq metres and less than 125 sq metres,53.380256,-6.3614335,street_address,201809
2017-8-5,"NO.1 SHORE ROAD, BALLYLIFFIN, CO DONEGAL",,Donegal,65000,No,No,Second-Hand Dwelling house /Apartment,,55.280795,-7.3925539,street_address,201708
2018-5-25,"APT 2 MAIN ST, RUSH, DUBLIN",,Dublin,179500,No,No,Second-Hand Dwelling house /Apartment,,53.5256684,-6.0911586,locality-political,201805
2018-11-12,"MOUNT MUNGRET, MUNGRET, COUNTY LIMERICK",,Limerick,675000,No,No,Second-Hand Dwelling house /Apartment,,52.63195,-8.6854,locality-political,201811
2014-12-24,"BALLYGOBBAN, KNOCKANANNA, WICKLOW",,Wicklow,45000,No,No,Second-Hand Dwelling house /Apartment,,52.90332,-6.4345814,neighborhood-political,201412
2017-5-12,"CURRAGHALANE, LIFFORD, DONEGAL",,Donegal,55500,No,No,Second-Hand Dwelling house /Apartment,,54.8239402,-7.5036443,neighborhood-political,201705
2018-4-17,"Apartment 34  Leona Block, Honeypark, Honeypark",,Dublin,295154.19,No,Yes,New Dwelling house /Apartment,greater than or equal to 38 sq metres and less than 125 sq metres,53.280867,-6.1455281,neighborhood-political,201804
2012-10-25,"9 barrington court, prosperous",,Kildare,155000,No,No,Second-Hand Dwelling house /Apartment,,53.2869698,-6.7571155,street_address,201210
2019-5-4,"GLEN MERVYN HOUSE, GLANMIRE, CORK",,Cork,626500,No,No,Second-Hand Dwelling house /Apartment,,51.9180457,-8.4028605,political-sublocality-sublocality_level_1,201905
2012-4-4,"Ballincarriga, Dunmanway",,Cork,146500,No,No,Second-Hand Dwelling house /Apartment,,51.7043482,-9.0305213,neighborhood-political,201204
2020-11-11,"93 COLLEGE HILL, MULLINGAR, WESTMEATH",,Westmeath,225000,No,No,Second-Hand Dwelling house /Apartment,,53.5399646,-7.3589951,street_address,202011
2016-11-25,"148 WATERVILLE TERRACE, LAKEHURST, BLANCHARDSTOWN DUBLIN 15",Dublin 15,Dublin,230000,No,No,Second-Hand Dwelling house /Apartment,,53.3926674,-6.3703034,street_address,201611
2019-11-4,"24 CLUAINN AOIBHINN, SWELLAN, CAVAN",,Cavan,140056.49,No,No,Second-Hand Dwelling house /Apartment,,53.9892933,-7.3775897,street_address,201911
2010-9-12,"19 The Green, Kensington Lodge, Rochestown Avenue",,Dublin,310000,No,Yes,New Dwelling house /Apartment,greater than or equal to 38 sq metres and less than 125 sq metres,53.2780899,-6.1535517,premise,201009
2016-2-29,"APT 28, RUSSELL COURT, FELTRIM RD",,Dublin,118487,No,No,Second-Hand Dwelling house /Apartment,,53.4436619,-6.1960416,premise,201602
2011-5-26,"Coole West, Athea",,Limerick,50000,No,No,Second-Hand Dwelling house /Apartment,,51.9662966,-8.4671623,neighborhood-political,201105
2018-6-20,"no 6 Freke Mews, Baltimore",,Cork,196000,Yes,Yes,New Dwelling house /Apartment,greater than or equal to 38 sq metres and less than 125 sq metres,51.4800368,-9.3741093,street_address,201806
2017-9-29,"18 The Way, The Paddocks, Hansfield",,Dublin,264273,No,Yes,New Dwelling house /Apartment,greater than or equal to 38 sq metres and less than 125 sq metres,53.3961029,-6.4391348,route,201709
2010-5-2,"10 the paddock, moyglare abbey, maynooth",,Kildare,312000,No,No,Second-Hand Dwelling house /Apartment,,53.3898401,-6.6017645,route,201005
2019-7-17,"14 BAILE AN, KILLORGLIN, TOOREEN",,Kerry,185000,No,No,Second-Hand Dwelling house /Apartment,,52.1011635,-9.7715423,street_address,201907
2018-10-24,"82G, BELLEVUE, ISLANDBRIDGE DUBLIN 8",Dublin 8,Dublin,245000,Yes,No,Second-Hand Dwelling house /Apartment,,53.3468527,-6.3108311,establishment-point_of_interest,201810
2017-1-31,"76 BLOCK A, SMITHFIELD MARKET DUBLIN 7, DUBLIN",Dublin 7,Dublin,403000,No,No,Second-Hand Dwelling house /Apartment,,53.3488527,-6.2790435,subpremise,201701
2018-7-12,"2 ARDROM, VICTORIA RD, DALKEY",,Dublin,1600000,No,No,Second-Hand Dwelling house /Apartment,,53.2760489,-6.0972503,premise,201807
2016-5-2,"50 PRIMROSE GARDENS, CLARECASTLE, CLARE",,Clare,174000,No,No,Second-Hand Dwelling house /Apartment,,52.8125454,-8.9687388,street_address,201605
2013-12-17,"18 UPPER RATHMINES RD, DUBLIN 6, DUBLIN",,Dublin,192500,No,No,Second-Hand Dwelling house /Apartment,,53.3210237,-6.2653774,street_address,201312
2014-1-31,"172 The Richmond, North Brunswick Street, Dublin 7",,Dublin,122000,No,No,Second-Hand Dwelling house /Apartment,,53.3511412,-6.2777243,subpremise,201401
2016-11-11,"16  Maoilin, Ballymoneen Road",,Galway,255682.5,No,Yes,New Dwelling house /Apartment,greater than or equal to 38 sq metres and less than 125 sq metres,53.2713986,-9.1223731,street_address,201611
2017-12-19,"15 ROCKWELL COVE, IDRONE TERRACE, BLACKROCK",,Dublin,640000,No,No,Second-Hand Dwelling house /Apartment,,53.3010744,-6.1742197,premise,201712
2017-7-9,"29 RIVERBANK HALL, ADDISON AVE, ADDISON PARK DUBLIN 9",Dublin 11,Dublin,220000,No,No,Second-Hand Dwelling house /Apartment,,53.3768281,-6.2766741,premise,201707
2017-1-16,"8 SOMERVILLE GREEN, CRUMLIN, DUBLIN 12",Dublin 12,Dublin,275000,No,No,Second-Hand Dwelling house /Apartment,,53.321024,-6.3200037,street_address,201701
2010-4-29,"16 Marlfield Grove, Tallaght",,Dublin,162000,No,No,Second-Hand Dwelling house /Apartment,,53.2716002,-6.3689565,street_address,201004
2015-6-15,"Apt 316 Block 8A, Tallaght Cross West, Dublin 24",Dublin 24,Dublin,120145.15,No,Yes,New Dwelling house /Apartment,greater than or equal to 38 sq metres and less than 125 sq metres,53.2849263,-6.3713058,postal_town,201506
2016-1-3,"Apt 12 Adelaide House, 7/8 Haddington Terrace, Dun Laoghaire",,Dublin,200000,No,No,Second-Hand Dwelling house /Apartment,,53.2923206,-6.1308988,subpremise,201601
2020-9-12,"104 THE WOOD CLON BRUGH, AIKENS VILAGE, SANDYFORD DUBLIN 18",Dublin 18,Dublin,350000,No,No,Second-Hand Dwelling house /Apartment,,53.2643458,-6.227438,street_address,202009
2015-6-11,"MARLINSTOWN, MULLINGAR, WESTMEATH",,Westmeath,162000,No,No,Second-Hand Dwelling house /Apartment,,53.5157702,-7.3046793,neighborhood-political,201506
2015-1-21,"12 PALMERS GLADE, PALMERSTOWN MANOR, PALMERSTOWN DUBLIN 20",Dublin 20,Dublin,271000,No,No,Second-Hand Dwelling house /Apartment,,53.3486809,-6.3834479,street_address,201501
2013-7-18,"98 Colthurst Crescent, Lucan",,Dublin,220000,No,No,Second-Hand Dwelling house /Apartment,,53.3483203,-6.4166204,street_address,201307
2017-3-16,"50 DUFFERIN AVE, SOUTH CIRCULAR RD, DUBLIN 8",Dublin 8,Dublin,750000,No,No,Second-Hand Dwelling house /Apartment,,53.3315878,-6.2813835,street_address,201703
2017-8-28,"BUNROWER, AYLE, WESTPORT",,Mayo,155000,No,No,Second-Hand Dwelling house /Apartment,,52.82247364,-7.74485287,,201708
2018-3-22,"APARTMENT, MAIN STREET, ARVA",,Cavan,55000,No,No,Second-Hand Dwelling house /Apartment,,52.82247364,-7.74485287,,201803
2014-9-22,"123 ADELAIDE SQ, WHITEFRIAR ST, DUBLIN 8",Dublin 8,Dublin,350000,No,No,Second-Hand Dwelling house /Apartment,,53.3401177,-6.2676415,route,201409
2019-6-20,"16 ST MICHAELS TERRACE, CLOGHERHEAD, LOUTH",,Louth,100000,No,No,Second-Hand Dwelling house /Apartment,,53.7949784,-6.2484184,street_address,201906
2017-3-31,"APT 11, FITZWILLIAM COURT, DYER ST",,Louth,100000,No,No,Second-Hand Dwelling house /Apartment,,53.7137368,-6.351434,route,201703
2019-6-21,"152 CAISLEAN NA, HABHAINN CASTLETROY, LIMERICK",,Limerick,272500,No,No,Second-Hand Dwelling house /Apartment,,52.6576968,-8.5710615,street_address,201906
2015-6-15,"Apt 343 Block 8B, Tallaght Cross West, Dublin 24",Dublin 24,Dublin,95278.47,No,Yes,New Dwelling house /Apartment,greater than or equal to 38 sq metres and less than 125 sq metres,53.2849263,-6.3713058,postal_town,201506
2010-12-10,"69 Elm Mount Avenue, Beaumont, Dublin 9",,Dublin,267000,No,No,Second-Hand Dwelling house /Apartment,,53.3814162,-6.2282456,street_address,201012
2014-7-22,"114 College Manor, Hoey's Lane, Dundalk",,Louth,62400,No,No,Second-Hand Dwelling house /Apartment,,53.9859258,-6.3882564,street_address,201407
2014-3-26,"24 HAZELWOOD, LOUGHREA, GALWAY",,Galway,133000,No,No,Second-Hand Dwelling house /Apartment,,53.2042638,-8.5753593,street_address,201403
2017-1-19,"1 THE GREEN, HAZELBROOK SQUARE, WHITEHALL ROAD",Dublin 14,Dublin,563877,No,Yes,New Dwelling house /Apartment,greater than or equal to 125 sq metres,53.293821,-6.2681887,intersection,201701
2018-5-22,"11 EMMET TERRACE, TULLAMORE, OFFALY",,Offaly,182500,No,No,Second-Hand Dwelling house /Apartment,,53.2789815,-7.4908951,premise,201805
2012-11-19,"Knockanae, Boher",,Limerick,135000,No,No,Second-Hand Dwelling house /Apartment,,52.6251911,-8.4645868,neighborhood-political,201211
2017-9-10,"APT 7, 262 NORTH CIRCULAR ROAD, DUBLIN 7",,Dublin,110900,No,No,Second-Hand Dwelling house /Apartment,,53.359038,-6.280231,subpremise,201709
2021-1-2,"25 Athlumney Close, Kentstown Road, Navan",,Meath,259912,No,Yes,New Dwelling house /Apartment,,53.649348,-6.6622155,street_address,202101
2014-5-15,"103 ASHFIELD, NORTH RD, DROGHEDA",,Louth,170000,No,No,Second-Hand Dwelling house /Apartment,,53.717856,-6.3560985,locality-political,201405
2017-2-5,"20 Kellett's Grove, Lagore Road, Dunshaughlin",,Meath,321586,No,Yes,New Dwelling house /Apartment,greater than or equal to 38 sq metres and less than 125 sq metres,53.5101588,-6.5134988,route,201702
2014-9-24,"17 EDWARD SQ, BLOOMFIELD, DONNYBROOK DUBLIN 4",Dublin 4,Dublin,1374449,No,No,Second-Hand Dwelling house /Apartment,,53.3263096,-6.2458256,street_address,201409
2014-12-3,"93 HAMPTON WOOD RD, HAMPTON WOOD, FINGLAS DUBLIN 11",Dublin 11,Dublin,81400,No,No,Second-Hand Dwelling house /Apartment,,53.4055269,-6.2845135,street_address,201412
2021-6-12,"23 THE ORCHARD, RUSHBROOKE LINKS, COBH",,Cork,275000,No,No,Second-Hand Dwelling house /Apartment,,51.8503357,-8.2942858,locality-political,202106
2016-3-18,"3 JANEMOUNT PARK, CORBALLY, LIMERICK",,Limerick,158500,No,No,Second-Hand Dwelling house /Apartment,,52.6718608,-8.6158036,street_address,201603
2012-1-6,"Apt 110 Alliance Building, The Gasworks Barrow Street, South Lotts Road",,Dublin,164431.57,No,No,Second-Hand Dwelling house /Apartment,,53.3390643,-6.2351068,premise,201201
2015-4-28,"187 The Oaks, Carrington, Santry  Dublin 9",,Dublin,193595,No,Yes,New Dwelling house /Apartment,greater than or equal to 38 sq metres and less than 125 sq metres,53.4046937,-6.2515245,establishment-point_of_interest,201504
2018-12-28,"DRUM, BELMULLET, MAYO",,Mayo,220000,No,No,Second-Hand Dwelling house /Apartment,,54.2238996,-9.9876028,locality-political,201812
2016-3-23,"4 BUTTERGATE WAY, MORNINGTON, MEATH",,Meath,195000,No,No,Second-Hand Dwelling house /Apartment,,53.7115418,-6.2867134,street_address,201603
2020-12-18,"4 THE HEATHERS, CASTLEKNOCK ROAD, DUBLIN 15",Dublin 15,Dublin,810000,No,No,Second-Hand Dwelling house /Apartment,,53.3735803,-6.3638909,premise,202012
2021-3-15,"30 STOCKING WOOD COPSE, STOCKING AVE, RATHFARNHAM",Dublin 16,Dublin,260000,No,No,Second-Hand Dwelling house /Apartment,,53.2717579,-6.3199174,street_address,202103
2010-10-12,"1 Heeleys View, The Mall, Malahide",,Dublin,352422.91,No,Yes,New Dwelling house /Apartment,greater than 125 sq metres,53.4501032,-6.1529014,route,201010
2019-5-7,"MAIN STREET, MUCKLAGH, TULLAMORE",,Offaly,80000,No,No,Second-Hand Dwelling house /Apartment,,53.2755255,-7.4933852,locality-political,201905
2020-7-23,"BECTIVE STREET, KELLS, CO MEATH",,Meath,320000,No,No,Second-Hand Dwelling house /Apartment,,53.7242144,-6.8805406,route,202007
2013-7-25,"16 Botley Court, Kilmalogue, Portarlington",,Laois,86000,No,No,Second-Hand Dwelling house /Apartment,,53.1641426,-7.1927357,street_address,201307
2011-6-30,"Town Lough Uppe, Killaloe Ballina, Co. Tipperary",,Tipperary,378150,No,No,Second-Hand Dwelling house /Apartment,,52.8571569,-8.4052264,neighborhood-political,201106
2020-10-27,"112 LIMEKILN GREEN, WALKINSTOWN, DUBLIN 12",Dublin 12,Dublin,386000,No,No,Second-Hand Dwelling house /Apartment,,53.3062523,-6.3370332,street_address,202010
2017-6-15,"80 WYLIE'S HILL, BALLYBAY, CO MONAGHAN",,Monaghan,61000,No,No,Second-Hand Dwelling house /Apartment,,54.1327733,-6.8971272,street_address,201706
2010-3-31,"54 The Way, Hunters Run, Clonee",,Dublin,241500,No,No,Second-Hand Dwelling house /Apartment,,53.40066,-6.4205308,street_address,201003
2019-6-2,"16 Elder Heath Walk, Elder Heath, Kiltipper Road",Dublin 24,Dublin,268722,No,Yes,New Dwelling house /Apartment,,53.2718597,-6.3806326,street_address,201906
2015-9-15,"LANAGANS COTTAGE, CAHARA, GLIN",,Limerick,147000,No,No,Second-Hand Dwelling house /Apartment,,40.3339902,-74.0748017,clothing_store-establishment-point_of_interest-store,201509
2014-11-4,"806 RIVERPOINT, BISHOPS QUAY, LIMERICK",,Limerick,80000,No,No,Second-Hand Dwelling house /Apartment,,52.6613744,-8.6325139,premise,201411
2015-7-24,"44 Castle Oaks, Castle Road, Bandon",,Cork,138943,No,Yes,New Dwelling house /Apartment,greater than or equal to 38 sq metres and less than 125 sq metres,51.7414727,-8.7492691,street_address,201507
2017-2-27,"24 AYLESBURY, AYLESBURY AVE, FERRYBANK",,Kilkenny,160000,No,No,Second-Hand Dwelling house /Apartment,,52.2719221,-7.09511,street_address,201702
2016-4-20,"AUGHAKEE, KILNALECK, CAVAN",,Cavan,110000,No,No,Second-Hand Dwelling house /Apartment,,53.9016996,-7.3083395,neighborhood-political,201604
2014-10-27,"100 CARTUR MOR, BR AN CHLAI BHAIN UACH, CNOC NA CATHRACH",,Galway,260000,No,No,Second-Hand Dwelling house /Apartment,,53.2742524,-9.1040602,street_address,201410
2015-6-15,"36 The Paddocks Crescent, Adamstown",,Dublin,271366,No,Yes,New Dwelling house /Apartment,greater than or equal to 38 sq metres and less than 125 sq metres,53.3483491,-6.4619719,street_address,201506
2018-1-22,"20 AUBURN CLOSE, CLONMEL, TIPPERARY",,Tipperary,150000,No,No,Second-Hand Dwelling house /Apartment,,52.3649923,-7.7134147,street_address,201801
2021-10-11,"32 Carraig Mor, Caherdaniel, Bantry",,Cork,284615,Yes,Yes,New Dwelling house /Apartment,,51.8994841,-8.5079732,establishment-health-hospital-point_of_interest,202110
2020-6-7,"1 ROSE TERRACE, MAIN STREET, LOUTH",,Louth,165000,No,No,Second-Hand Dwelling house /Apartment,,53.9508,-6.54062,locality-political,202006
2015-8-20,"8 ORCHARD GROVE, NEWCASTLE, DUBLIN",Dublin 22,Dublin,286000,No,No,Second-Hand Dwelling house /Apartment,,53.2984312,-6.4959351,street_address,201508
2015-9-22,"APT 145B LYMEWOOD MEWS, SANTRY, DUBLIN 9",,Dublin,180000,No,No,Second-Hand Dwelling house /Apartment,,53.4038425,-6.2525972,establishment-point_of_interest,201509
2012-12-21,"San Gerardo, 5 Clareview Terrace, South Circular Road",,Limerick,100000,No,No,Second-Hand Dwelling house /Apartment,,52.6568635,-8.6353362,premise,201212
2015-10-21,"11 ESTUARY VIEW, BALLYNOE FARM, COBH",,Cork,262500,No,No,Second-Hand Dwelling house /Apartment,,51.856089,-8.3155243,street_address,201510
2021-4-20,"KNOCKRATHKYLE, GLENBRIEN, ENNISCORTHY",,Wexford,245000,No,No,Second-Hand Dwelling house /Apartment,,52.4694895,-6.5270931,neighborhood-political,202104
2021-3-30,"THIRD FLOOR, 36 O CONNELL STREET, DUBLIN",Dublin 1,Dublin,200000,No,No,Second-Hand Dwelling house /Apartment,,53.3525541,-6.2610774,street_address,202103
2012-8-15,"44 Cloyne Road, Kimmage, Dublin 12",,Dublin,90000,No,No,Second-Hand Dwelling house /Apartment,,53.3182948,-6.2950336,street_address,201208
2021-3-9,"6 BROOMFIELD COURT, SHANKILL, DUBLIN",Dublin 18,Dublin,605000,No,No,Second-Hand Dwelling house /Apartment,,53.2405397,-6.1241907,street_address,202103
2015-12-18,"'Innisfree', Hill Road, Whitegate",,Cork,215000,No,No,Second-Hand Dwelling house /Apartment,,52.82247364,-7.74485287,,201512
2012-3-23,"83  Rathfarnham Wood, Rathfarnham",,Dublin,555000,No,No,Second-Hand Dwelling house /Apartment,,53.2959921,-6.2800097,street_address,201203
2017-11-30,"RED ROSE HOUSE, DRONMORE DRIVE, MALLOW",,Cork,210000,No,No,Second-Hand Dwelling house /Apartment,,52.1281056,-8.6480827,route,201711
2017-10-7,"Alemese, Old Quarry, Dalkey",,Dublin,1079295.14,No,Yes,New Dwelling house /Apartment,greater than or equal to 38 sq metres and less than 125 sq metres,53.2761827,-6.1098558,route,201710
2012-8-10,"2 Spencers Court, Enniscorthy",,Wexford,133500,No,No,Second-Hand Dwelling house /Apartment,,52.5106205,-6.5697873,street_address,201208
2021-10-15,"65 WOODFIELD GROVE, KILLELINE, NEWCASTLE WEST",,Limerick,237500,No,No,Second-Hand Dwelling house /Apartment,,52.4409687,-9.0484251,street_address,202110
2018-10-17,"SHANNONSIDE LODGE, RATHCLINE RD, LANESBORO",,Longford,183000,No,No,Second-Hand Dwelling house /Apartment,,53.672532,-7.9869051,route,201810
2017-1-3,"13 LEIN PARK, ARTANE, DUBLIN 5",Dublin 5,Dublin,265000,No,No,Second-Hand Dwelling house /Apartment,,53.3821907,-6.1863894,street_address,201701
2015-5-20,"2 HEATHER PK, MARLEY WOOD RATHFARNHAM, DUBLIN 16",Dublin 16,Dublin,375000,No,No,Second-Hand Dwelling house /Apartment,,53.274697,-6.2614467,street_address,201505
2016-12-13,"17 PARLIAMENT ST, WATERFORD, WATERFORD",,Waterford,62000,No,No,Second-Hand Dwelling house /Apartment,,52.2569077,-7.1123241,street_address,201612
2021-11-25,"19  Whitethorn Lawn, Whitethorn Village, Naas",,Kildare,383217.92,No,Yes,New Dwelling house /Apartment,,53.2112148,-6.6730588,establishment-point_of_interest,202111
2012-11-30,"Cill Aodhan, Seafield Road, Killiney",,Dublin,750000,No,No,Second-Hand Dwelling house /Apartment,,53.2497233,-6.1152545,route,201211
2021-1-10,"15 WHEATRIDGE, MARYBOROUGH WOODS DOUGLAS, CORK",,Cork,385000,No,No,Second-Hand Dwelling house /Apartment,,51.868809,-8.4307723,street_address,202101
2019-11-12,"1 ARTISANS BUILDINGS, WATERGATE STREET, BANDON",,Cork,154000,No,No,Second-Hand Dwelling house /Apartment,,51.7474017,-8.7316261,premise,201911
2015-11-2,"8 ST FINIANS TERRACE, NAVAN, MEATH",,Meath,90000,No,No,Second-Hand Dwelling house /Apartment,,53.6498897,-6.6844044,street_address,201511
2013-6-28,"1223, timolin, moone",,Kildare,34690,Yes,No,Second-Hand Dwelling house /Apartment,,52.82247364,-7.74485287,,201306
2019-11-14,"10 UPPER MASSEYTOWN, MACROOM, CORK",,Cork,50414,Yes,No,Second-Hand Dwelling house /Apartment,,51.91794,-8.9753921,route,201911
2017-6-28,"11 LATCHFORD SQ, CLONSILLA, DUBLIN 15",Dublin 15,Dublin,227000,No,No,Second-Hand Dwelling house /Apartment,,53.3968641,-6.430835,street_address,201706
2020-6-26,"2 The Nurseries, Taney Road, Dundrum",Dublin 14,Dublin,733149.78,No,Yes,New Dwelling house /Apartment,,53.2920326,-6.242125,establishment-point_of_interest-real_estate_agency,202006
2012-12-18,"grangemore, tynagh, loughrea",,Galway,88106,No,Yes,New Dwelling house /Apartment,greater than 125 sq metres,53.150019,-8.3736439,locality-political,201212
2019-9-30,"47 BUCKLEYS LANE, LEIXLIP, KILDARE",,Kildare,275000,No,No,Second-Hand Dwelling house /Apartment,,53.3637285,-6.4914045,street_address,201909
2019-11-7,"57 STEPASIDE PARK, STEPASIDE, DUBLIN 18",Dublin 18,Dublin,762500,No,No,Second-Hand Dwelling house /Apartment,,53.2528694,-6.2104095,street_address,201911
2016-2-2,"IDLEHOUR, ST FINBARS, AILESBURY RD DUBLIN 4",Dublin 4,Dublin,1820000,No,No,Second-Hand Dwelling house /Apartment,,53.3200163,-6.2218999,route,201602
2021-7-5,"NO 3 SEAFIELD PARK, BLACKROCK, CO DUBLIN",,Dublin,175000,No,No,Second-Hand Dwelling house /Apartment,,53.3076978,-6.2083927,street_address,202107
2018-5-17,"2 AUPPER, JOHN ST, SLIGO",,Sligo,85000,No,No,Second-Hand Dwelling house /Apartment,,54.2702137,-8.4796126,street_address,201805
2012-6-18,"Ballyloughlin, Glin",,Limerick,44000,No,No,Second-Hand Dwelling house /Apartment,,52.82247364,-7.74485287,,201206
2016-1-27,"9 THE EARL, BARONS HALL HOUSE, BALBRIGGAN",,Dublin,100000,No,No,Second-Hand Dwelling house /Apartment,,53.6125294,-6.2042009,premise,201601
2020-10-2,"35 ABBEY GARDENS, ABBEYSIDE, DUNGARVEN",,Waterford,308370,No,Yes,New Dwelling house /Apartment,,52.096627,-7.6040798,street_address,202010
2020-8-19,"BALLAGHCULLIA, BALLINAGARE, CASTLEREA",,Roscommon,5252,Yes,No,Second-Hand Dwelling house /Apartment,,53.7686571,-8.4924537,locality-political,202008
2019-6-9,"19 Willow Way, The Willows, Dunshaughlin",,Meath,330396,No,Yes,New Dwelling house /Apartment,,53.5000546,-6.5321344,establishment-general_contractor-point_of_interest,201906
2010-1-20,"10 Clogher Faili, Carrigeendaniel, Caherslee  Tralee",,Kerry,360000,No,No,Second-Hand Dwelling house /Apartment,,52.2736249,-9.7231525,premise,201001
2016-3-24,"11 CLAREMONT, BALLYFORAN, CO ROSCOMMON",,Roscommon,90000,No,No,Second-Hand Dwelling house /Apartment,,53.4707433,-8.2720833,street_address,201603
2012-12-20,"weavers hill, kilboy, ballyfeard",,Cork,320000,No,No,Second-Hand Dwelling house /Apartment,,51.75429,-8.40693,locality-political,201212
2020-9-30,"TOOREENNASLIGGAUN, CARAGH LAKE, KILLORGLIN",,Kerry,255000,No,No,Second-Hand Dwelling house /Apartment,,52.0789887,-9.869185,neighborhood-political,202009
2017-9-15,"7 Darley Lane, Belmont, Aiken's Village",,Dublin,387665,No,Yes,New Dwelling house /Apartment,greater than or equal to 38 sq metres and less than 125 sq metres,53.2632897,-6.2244888,political-sublocality-sublocality_level_1,201709
2020-1-22,"230 MC KEE AVE, FINGLAS, DUBLIN 11",Dublin 11,Dublin,245000,No,No,Second-Hand Dwelling house /Apartment,,53.3967216,-6.3038194,street_address,202001
2018-12-20,"13 ELM MOUNT ROAD, BEAUMONT, DUBLIN 9",,Dublin,170000,No,No,Second-Hand Dwelling house /Apartment,,53.3780553,-6.2181103,street_address,201812
2016-6-12,"32 COLLEGE GREEN, GREEN RD, CARLOW",,Carlow,137500,Yes,No,Second-Hand Dwelling house /Apartment,,52.820481,-6.9373754,street_address,201606
2018-7-12,"66 Castleguard Manor, Ardee",,Louth,187225.17,No,Yes,New Dwelling house /Apartment,greater than or equal to 38 sq metres and less than 125 sq metres,53.856971,-6.5233224,establishment-point_of_interest,201807
2018-8-23,"711 RIVERPOINT, THE BISHOPS QUAY, LIMERICK",,Limerick,200000,No,No,Second-Hand Dwelling house /Apartment,,52.6613744,-8.6325139,premise,201808
2020-11-2,"5 ST AIDANS PARK, MARINO, DUBLIN 3",Dublin 3,Dublin,345000,No,No,Second-Hand Dwelling house /Apartment,,53.3662919,-6.230895,street_address,202011
2019-3-9,"30 BROOKFIELD COURT, BROOKFIELD GREEN, KIMMAGE DUBLIN 12",Dublin 12,Dublin,281000,No,No,Second-Hand Dwelling house /Apartment,,53.3144301,-6.3009016,premise,201903
2010-10-18,"67 maplewood avenue, springfield, tallaght",Dublin 24,Dublin,170000,No,No,Second-Hand Dwelling house /Apartment,,53.2837911,-6.3845943,street_address,201010
2014-4-22,"LARGANTREAN, GLEN, CARRIGART",,Donegal,17845,No,No,Second-Hand Dwelling house /Apartment,,55.1775506,-7.7932777,locality-political,201404
2019-3-20,"BALLINDRIMLEY, CASTLEREA, CO ROSCOMMON",,Roscommon,135000,No,No,Second-Hand Dwelling house /Apartment,,53.771505,-8.4938182,route,201903
2014-12-22,"154 BOHERMORE, GALWAY",,Galway,137399,No,No,Second-Hand Dwelling house /Apartment,,53.2786898,-9.0447517,street_address,201412
2021-6-1,"LEES COTTAGE, BALLYMORE WEST, BOYLE",,Roscommon,120000,No,No,Second-Hand Dwelling house /Apartment,,53.9356521,-8.3365582,premise,202106
2017-7-19,"101 GLENDARA, KILL, KILDARE",,Kildare,345000,No,No,Second-Hand Dwelling house /Apartment,,53.2448287,-6.5908623,street_address,201707
2012-5-17,"Mount Falcon, Ballina",,Mayo,210000,No,No,Second-Hand Dwelling house /Apartment,,54.1149482,-9.1550693,locality-political,201205
2017-12-6,"57 Togher Way, Urlingford",,Kilkenny,178000,Yes,Yes,New Dwelling house /Apartment,greater than or equal to 38 sq metres and less than 125 sq metres,52.7150014,-7.5872444,street_address,201712
2021-7-30,"23 MONAMORE, LODGE ROAD, WESTPORT",,Mayo,251365,No,Yes,New Dwelling house /Apartment,,53.809356,-9.5028264,neighborhood-political,202107
2016-12-2,"63 TONLEGEE RD, COOLOCK, DUBLIN 5",Dublin 5,Dublin,321000,No,No,Second-Hand Dwelling house /Apartment,,53.3893275,-6.1968504,street_address,201612
2018-11-23,"Apt 4A Gortoolan, Ballyconnell, Co Cavan",,Cavan,44000,No,Yes,New Dwelling house /Apartment,greater than or equal to 38 sq metres and less than 125 sq metres,54.1162175,-7.5839543,locality-political,201811
2019-12-18,"ATHGARVAN, NEWBRIDGE, CO KILDARE",,Kildare,555000,No,No,Second-Hand Dwelling house /Apartment,,53.1754257,-6.7992178,route,201912
2017-11-15,"8 ST ETCHENS COURT, KINNEGAD, WESTMEATH",,Westmeath,150000,No,No,Second-Hand Dwelling house /Apartment,,53.4562567,-7.1004815,street_address,201711
2018-8-24,"6 HARBOUR VIEW, CROOKE PASSAGE EAST, WATERFORD",,Waterford,96000,No,No,Second-Hand Dwelling house /Apartment,,52.2297571,-6.9756501,street_address,201808
2016-11-5,"3 YELLOW CLAY MANOR, COMMONS RD, NAVAN",,Meath,90000,No,No,Second-Hand Dwelling house /Apartment,,53.6450235,-6.6988797,premise,201611
2021-5-7,"11  12 and 13 BARRACK ST, GORESBRIDGE, KILKENNY",,Kilkenny,30000,No,No,Second-Hand Dwelling house /Apartment,,52.6305233,-6.9942002,street_address,202105
2017-4-14,"54 CLUAIN CRAOIBH, MULLINGAR RD, KINNEGAD",,Westmeath,128000,No,No,Second-Hand Dwelling house /Apartment,,53.4571911,-7.1077215,street_address,201704
2013-6-12,"APARTMENT 6, O'CONNELL COURT, DOMINIC STREET",,Cork,16444.23,Yes,No,Second-Hand Dwelling house /Apartment,,51.8729825,-8.4974493,establishment-point_of_interest,201306
2011-11-21,"7 Kincora Avenue, Clontarf",Dublin 3,Dublin,500000,No,No,Second-Hand Dwelling house /Apartment,,53.3633711,-6.209676,street_address,201111
2014-10-31,"236 Morell Dale, Naas",,Kildare,220000,No,No,Second-Hand Dwelling house /Apartment,,53.2365931,-6.6577273,street_address,201410
2013-1-2,"5 Valentine Villas, The Lough, Cork",,Cork,173000,No,No,Second-Hand Dwelling house /Apartment,,51.8895311,-8.483922,street_address,201301
2017-3-3,"49 WELLPARK RD, WELLPARK, GALWAY",,Galway,220000,No,No,Second-Hand Dwelling house /Apartment,,53.2838979,-9.0281919,street_address,201703
2010-1-18,"7 Riverchapel Road, Riverchapel Wood, Courtown",,Wexford,159325.11,No,Yes,New Dwelling house /Apartment,greater than or equal to 38 sq metres and less than 125 sq metres,52.6395178,-6.2389281,street_address,201001
2015-5-11,"3 Richmond Court, Newline Road, Wexford",,Wexford,164556,No,Yes,New Dwelling house /Apartment,greater than or equal to 38 sq metres and less than 125 sq metres,52.3119675,-6.5324063,political-sublocality-sublocality_level_1,201505
2015-1-28,"20 BRACKENSTOWN AVE, SWORDS, CO DUBLIN",,Dublin,387000,No,No,Second-Hand Dwelling house /Apartment,,53.4604864,-6.2288695,street_address,201501
2017-2-8,"1 GLENAGEARY HALL, GLENAGEARY, DUN LAOIRE",,Dublin,900000,No,No,Second-Hand Dwelling house /Apartment,,53.2763139,-6.125003,street_address,201702
2014-11-20,"1 ROMAN STREET, CORK CITY",,Cork,100000,No,No,Second-Hand Dwelling house /Apartment,,51.9044865,-8.4756901,street_address,201411
2021-9-2,"38 CURRAHEEN RD, HALLDENE ESTATE, BISHOPSTOWN",,Cork,355000,No,No,Second-Hand Dwelling house /Apartment,,51.8748112,-8.5371036,premise,202109
2017-7-27,"THE STUMP OF THE CASTLE, RATHDRUM, CO WICKLOW",,Wicklow,240000,No,No,Second-Hand Dwelling house /Apartment,,52.9494308,-6.2261918,neighborhood-political,201707
2018-4-25,"24 SILCHESTER PARK, GLENAGEARY, DUN LAOGHAIRE",,Dublin,672500,No,No,Second-Hand Dwelling house /Apartment,,53.2814072,-6.1304922,street_address,201804
2021-3-12,"16 HILLVIEW, BELLINGSFIELD, KILCULLEN ROAD",,Kildare,457000,No,No,Second-Hand Dwelling house /Apartment,,53.1967486,-6.6668175,establishment-point_of_interest,202103
2019-8-11,"114 SOMMERVILLE, RATOATH, MEATH",,Meath,283000,No,No,Second-Hand Dwelling house /Apartment,,53.5043454,-6.4740175,street_address,201908
2019-11-29,"APT 22 BLOCK 1 IVY EXCHANGE, PARNELL STREET, DUBLIN 1",Dublin 1,Dublin,325256.4,No,No,Second-Hand Dwelling house /Apartment,,53.3499018,-6.2676521,establishment-point_of_interest,201911
2018-1-16,"BALTIMORE ROAD, SKIBEREEN, CORK",,Cork,150000,No,No,Second-Hand Dwelling house /Apartment,,51.5398239,-9.2738927,route,201801
2021-10-12,"APT 17 & 18, NELSON HOUSE, 16 NELSON ST",,Kildare,323000,No,No,Second-Hand Dwelling house /Apartment,,52.82247364,-7.74485287,,202110
2016-5-23,"62 WOODVIEW, MOUNT MERRION AVE, BLACKROCK",,Dublin,415000,No,No,Second-Hand Dwelling house /Apartment,,53.300418,-6.1886511,street_address,201605
2016-10-21,"66 DONSCOURT, BISHOPSTOWN, CORK",,Cork,267000,No,No,Second-Hand Dwelling house /Apartment,,51.8771874,-8.5129153,street_address,201610
2020-11-2,"29 CLEEVAUN, NAAS, KILDARE",,Kildare,295000,No,No,Second-Hand Dwelling house /Apartment,,53.2121672,-6.6569054,street_address,202011
2018-10-7,"KNOX PARK, BALLISODARE, COUNTY SLIGO",,Sligo,61500,No,No,Second-Hand Dwelling house /Apartment,,54.2121162,-8.5090366,locality-political,201810
2017-2-15,"1 CLARAN COURT, MAIN STREET, LIFFORD",,Donegal,150000,No,No,Second-Hand Dwelling house /Apartment,,54.8328751,-7.4856389,locality-political,201702
2021-8-3,"FOUR SEASONS, KILLEAGH, BLACKWATER",,Wexford,330000,No,No,Second-Hand Dwelling house /Apartment,,51.9424888,-7.9920158,locality-political,202108
2016-1-25,"1 BLACKBERRY GLADE, ARKLOW, CO WICKLOW",,Wicklow,219000,No,No,Second-Hand Dwelling house /Apartment,,52.7915778,-6.1553134,street_address,201601
2018-10-25,"30 SHANDON PARK, PHIBSBORO, DUBLIN 7",Dublin 7,Dublin,510000,No,No,Second-Hand Dwelling house /Apartment,,53.3652203,-6.2775792,street_address,201810
2018-3-5,"16 FERNLEIGH DR, CASTLEKNOCK, DUBLIN 15",Dublin 15,Dublin,292000,No,No,Second-Hand Dwelling house /Apartment,,53.3736447,-6.4033982,street_address,201803
2021-8-10,"63 BOROIMHE ALDER, SWORDS, DUBLIN",,Dublin,315000,No,No,Second-Hand Dwelling house /Apartment,,53.4435006,-6.2382964,street_address,202108
2014-12-12,"39 THE CHASE, COLCOTTS, WEXFORD",,Wexford,120000,No,No,Second-Hand Dwelling house /Apartment,,52.3363307,-6.4878823,street_address,201412
2016-12-20,"57B BELMAYNE, BALGRIFFIN, BELMAYNE",Dublin 13,Dublin,209000,No,No,Second-Hand Dwelling house /Apartment,,53.4096881,-6.1765627,neighborhood-political,201612
2018-4-7,"6 DUN UISCE, BALLYBOYLE, DONEGAL",,Donegal,180000,No,No,Second-Hand Dwelling house /Apartment,,54.6423364,-8.1419106,establishment-lodging-point_of_interest,201804
2016-1-3,"10 WALNUT RISE, DRUMCONDRA, DUBLIN 9",Dublin 9,Dublin,520000,No,No,Second-Hand Dwelling house /Apartment,,53.3780024,-6.2566869,street_address,201601
2019-1-7,"12 CLAREMONT, BALLYFORAN, CO ROSCOMMON",,Roscommon,123000,No,No,Second-Hand Dwelling house /Apartment,,53.4707734,-8.2719614,street_address,201901
2016-9-5,"20 CURRAGH BIRIN, CASTLETROY, CO LIMERICK",,Limerick,131000,No,No,Second-Hand Dwelling house /Apartment,,52.6644275,-8.578607,street_address,201609
2011-9-2,"2 GLENDHU ROAD, OFF NAVAN ROAD",Dublin 7,Dublin,265000,No,No,Second-Hand Dwelling house /Apartment,,53.3742717,-6.3231799,street_address,201109
2018-7-17,"16 Cluain Ard, Dernagrew",,Monaghan,193932.45,Yes,No,Second-Hand Dwelling house /Apartment,,54.264226,-6.9642225,street_address,201807
2017-1-31,"34 WESTFIELD, BECTIVE ST, KELLS",,Meath,165000,No,No,Second-Hand Dwelling house /Apartment,,53.7242144,-6.8805406,route,201701
2019-12-16,"37 BELADD, PORTLAOISE, LAOIS",,Laois,169000,No,No,Second-Hand Dwelling house /Apartment,,53.0313515,-7.2699217,street_address,201912
2021-1-29,"36 LIMEKILN RD, DUBLIN 12, DUBLIN",Dublin 12,Dublin,560000,No,No,Second-Hand Dwelling house /Apartment,,53.3042189,-6.3251691,street_address,202101
2020-5-11,"70 LARKFIELD GARDENS, TERENURE, DUBLIN 6W",,Dublin,385000,No,No,Second-Hand Dwelling house /Apartment,,53.3173128,-6.2886315,subpremise,202005
2020-4-17,"57 Beaulieu Village, Termonfeckin Road, Drogheda",,Louth,225110.13,No,Yes,New Dwelling house /Apartment,,53.7295085,-6.3270529,street_address,202004
2017-10-20,"TONLAGEE, BALLYCONNELL, CAVAN",,Cavan,83000,No,No,Second-Hand Dwelling house /Apartment,,54.1162175,-7.5839543,locality-political,201710
2011-4-10,"Number 7, Tyleadon Heights, Monaghan",,Monaghan,270000,No,Yes,New Dwelling house /Apartment,greater than 125 sq metres,54.2492434,-6.9683082,locality-political,201104
2016-12-23,"145 KILDARE ROAD, CRUMLIN, DUBLIN 12",Dublin 12,Dublin,280000,No,No,Second-Hand Dwelling house /Apartment,,53.3248424,-6.3045346,street_address,201612
2017-9-20,"BARONSLAND, THOMASTOWN, CO KILKENNY",,Kilkenny,370000,No,No,Second-Hand Dwelling house /Apartment,,52.5708098,-7.1688633,neighborhood-political,201709
2013-11-18,"8 Murmount Park, Montenotte, Cork",,Cork,183000,No,No,Second-Hand Dwelling house /Apartment,,51.9099426,-8.4435108,street_address,201311
2019-10-30,"50 CRANNAGH PARK, RATHFARNHAM, DUBLIN 14",Dublin 14,Dublin,642000,No,No,Second-Hand Dwelling house /Apartment,,53.3014705,-6.2782295,street_address,201910
2014-2-28,"APT 20, ADELAIDE SQ, WHITEFRIAR ST DUBLIN 8",,Dublin,318405,No,No,Second-Hand Dwelling house /Apartment,,53.3401177,-6.2676415,route,201402
2016-1-9,"ROSE COTTAGE, 1 WOODLANDS, CASTLEDERMOT",,Kildare,88000,No,No,Second-Hand Dwelling house /Apartment,,52.9118755,-6.837567,locality-political,201601
2018-9-28,"1 The Brambles, Blackberry Lane, Rathmines",Dublin 6,Dublin,803524.22,No,Yes,New Dwelling house /Apartment,greater than or equal to 125 sq metres,53.3286461,-6.2653705,route,201809
2021-7-29,"APT 205, ABBEY RIVER COURT, SHEEPSTREET",,Limerick,161000,No,No,Second-Hand Dwelling house /Apartment,,52.6681245,-8.6209227,premise,202107
2015-12-22,"4 PARK VIEW WEST, TEMPLEMORE, TIPPERARY",,Tipperary,80000,No,No,Second-Hand Dwelling house /Apartment,,52.7993882,-7.8329414,street_address,201512
2014-6-17,"12 BELMONT SQ, RAHENY, DUBLIN 5",Dublin 5,Dublin,293000,No,No,Second-Hand Dwelling house /Apartment,,53.3844009,-6.1725257,street_address,201406
2021-11-19,"CLONCOLMAN, LISSYCASEY, ENNIS",,Clare,40000,No,No,Second-Hand Dwelling house /Apartment,,52.74688,-9.15188,locality-political,202111
2013-7-30,"12 Upper Beechwood Avenue, Ranelagh",Dublin 6,Dublin,750000,No,No,Second-Hand Dwelling house /Apartment,,53.3202437,-6.2540689,street_address,201307
2015-6-11,"5 MARKET COURT, DUNDALK ST, CARLINGFORD",,Louth,165000,No,No,Second-Hand Dwelling house /Apartment,,54.0396383,-6.18758,premise,201506
2017-2-27,"6 OLD BROOK COURT, LECK RD, LETTERKENNY",,Donegal,185000,No,No,Second-Hand Dwelling house /Apartment,,54.9420879,-7.7258209,route,201702
2014-10-23,"79 WOODAVANS, LUCAN RD, CLONDALKIN DUBLIN 22",Dublin 22,Dublin,149950,No,No,Second-Hand Dwelling house /Apartment,,53.3486257,-6.3471224,street_address,201410
2011-10-24,"9 Old Coast Guard Station, Renvyle",,Galway,110000,No,No,Second-Hand Dwelling house /Apartment,,53.5951968,-9.9579409,political-sublocality-sublocality_level_1,201110
2014-10-2,"1 THE GREENLANDS, CASTLESIDE DRIVE, RATHFARNHAM",,Dublin,315000,No,No,Second-Hand Dwelling house /Apartment,,53.2980262,-6.2795629,street_address,201410
2016-7-27,"OGHILL, INNISKEEN, CARRICKMACROSS",,Monaghan,280000,No,No,Second-Hand Dwelling house /Apartment,,53.9760832,-6.723793,premise,201607
2013-3-26,"10 UARAN AN TOIRIN, FARRANTOOREEN, KILLORGLIN",,Kerry,127753,No,Yes,New Dwelling house /Apartment,greater than or equal to 38 sq metres and less than 125 sq metres,52.0973213,-9.7909314,street_address,201303
2018-6-15,"301 AN SEAN MHUILEANN, NORTH CIRCULAR RD, TRALEE",,Kerry,72500,No,No,Second-Hand Dwelling house /Apartment,,52.2712096,-9.7003499,establishment-point_of_interest,201806
2010-3-23,"Glounashee, Ballea Road  Carrigaline",,Cork,390000,No,No,Second-Hand Dwelling house /Apartment,,51.8170747,-8.4025778,route,201003
2018-6-21,"CORLASKAGHKILNAGROSS, CARRICK ON SHANNON, LEITRIM",,Leitrim,68000,No,No,Second-Hand Dwelling house /Apartment,,53.9451156,-8.0861879,locality-political,201806
2014-10-7,"THE MEADOWS, BRAYSTOWN, LOBINSTOWN",,Meath,288000,No,No,Second-Hand Dwelling house /Apartment,,53.7851029,-6.6463604,locality-political,201410
2017-2-5,"4 BEACON HILL, FAHAN, CO DONEGAL",,Donegal,246000,No,No,Second-Hand Dwelling house /Apartment,,55.0881411,-7.4705833,street_address,201702
2021-8-13,"86 ST MOLLERANS, CARRICKBEG, CARRICK ON SUIR",,Tipperary,120000,No,No,Second-Hand Dwelling house /Apartment,,52.3418097,-7.4128725,street_address,202108
2018-7-16,"115 RATOATH RD, CABRA, DUBLIN",Dublin 7,Dublin,312000,Yes,No,Second-Hand Dwelling house /Apartment,,53.3654048,-6.3004572,street_address,201807
2012-2-2,"137 Dun na Carraige, Blackrock, Salthill",,Galway,300000,No,No,Second-Hand Dwelling house /Apartment,,53.2602036,-9.092279,street_address,201202
2020-5-22,"41 CHURCHWELL RD, BELMAYNE, DUBLIN 13",Dublin 13,Dublin,330000,No,No,Second-Hand Dwelling house /Apartment,,53.4043179,-6.1711319,street_address,202005
2015-1-5,"5 CATHEDRAL STREET, CORK",,Cork,85500,No,No,Second-Hand Dwelling house /Apartment,,51.9044996,-8.4769802,street_address,201501
2021-6-30,"GORTRUE, SNEEM, KERRY",,Kerry,80000,Yes,No,Second-Hand Dwelling house /Apartment,,51.8373942,-9.8983245,locality-political,202106
2019-6-21,"BALLINAKILLBEG, BENNEKERRY, CARLOW",,Carlow,250000,No,No,Second-Hand Dwelling house /Apartment,,52.8377678,-6.8759787,neighborhood-political,201906
2018-7-24,"Apartment 10, Bramley Hall, Diswellstown",Dublin 15,Dublin,295154,No,Yes,New Dwelling house /Apartment,greater than or equal to 38 sq metres and less than 125 sq metres,53.3690373,-6.3826511,establishment-point_of_interest,201807
2016-12-15,"CARNAHALLA, FIRVILLE, MALLOW",,Cork,350000,No,No,Second-Hand Dwelling house /Apartment,,52.587331,-8.21061,establishment-museum-point_of_interest-tourist_attraction,201612
2013-8-28,"18 HAZELWOOD, DUBLIN ROAD, THURLES",,Tipperary,160000,No,No,Second-Hand Dwelling house /Apartment,,52.6798221,-7.7920401,street_address,201308
2018-12-21,"15 WOODLANDS AVE, RENMORE, GALWAY",,Galway,260000,No,No,Second-Hand Dwelling house /Apartment,,53.2776212,-9.0284992,street_address,201812
2010-8-20,"41 Pebble Drive, Pebble Beach, Tramore",,Waterford,60000,No,No,Second-Hand Dwelling house /Apartment,,52.1635095,-7.141793,route,201008
2018-2-22,"36 CLUAIN DARA, KNOCKNACARRA, GALWAY",,Galway,260000,No,No,Second-Hand Dwelling house /Apartment,,53.2684859,-9.1115999,street_address,201802
2017-6-9,"RATHKEA, MOUNT BRUIS, TIPPERARY",,Tipperary,202000,No,No,Second-Hand Dwelling house /Apartment,,52.4517628,-8.2288622,neighborhood-political,201706
2020-11-11,"LAHARN EAST, BANTRY, CORK",,Cork,250000,No,No,Second-Hand Dwelling house /Apartment,,51.6800803,-9.4525763,locality-political,202011
2016-12-19,"28 WOODBROOK COURT, RIVERWOOD RD, CARPENTERSTOWN DUBLIN 15",Dublin 15,Dublin,255000,No,No,Second-Hand Dwelling house /Apartment,,53.3758001,-6.4040157,street_address,201612
2018-10-24,"22 THE ORCHARD, CARPENTERSTOWN RD, CARPENTERSTOWN DUBLIN 15",Dublin 15,Dublin,207000,No,No,Second-Hand Dwelling house /Apartment,,53.37489,-6.3883377,premise,201810
2012-5-15,"Coneybeg, Watergrasshill",,Cork,320000,No,No,Second-Hand Dwelling house /Apartment,,51.9875548,-8.3948932,neighborhood-political,201205
2020-5-2,"APT 1, TARA AN CAISLEAIN, BALLINCOLLIG",,Cork,207000,No,No,Second-Hand Dwelling house /Apartment,,51.8841976,-8.6047483,political-sublocality-sublocality_level_1,202005
2013-12-20,"11 ANNER RD, INCHICORE, DUBLIN 8",,Dublin,270000,No,No,Second-Hand Dwelling house /Apartment,,53.3389774,-6.3122638,street_address,201312
2014-3-12,"20 DURHAM RD, SANDYMOUNT, DUBLIN 4",Dublin 4,Dublin,900000,No,No,Second-Hand Dwelling house /Apartment,,53.3304327,-6.2126932,street_address,201403
2019-10-4,"45 WALNUT RISE, WHITEHALL, GRIFFITH AVE DUBLIN 9",Dublin 9,Dublin,640000,No,No,Second-Hand Dwelling house /Apartment,,53.377797,-6.2533594,street_address,201910
2021-7-1,"KNOCKROE, ATTYMON, ATHENRY",,Galway,130000,No,No,Second-Hand Dwelling house /Apartment,,53.3213127,-8.6060002,establishment-point_of_interest-train_station-transit_station,202107
2011-3-6,"44 Carrigcourt, Fortunestown Lane, Saggart",,Dublin,246696.03,No,Yes,New Dwelling house /Apartment,greater than or equal to 38 sq metres and less than 125 sq metres,53.2846136,-6.4306382,street_address,201103
2021-8-16,"6 PARKVIEW TERRACE, ATHLUNKARD ST, LIMERICK",,Limerick,145000,No,No,Second-Hand Dwelling house /Apartment,,52.6735283,-8.6398724,street_address,202108
2015-4-30,"TREENAGLERAGH, KILTIMAGH, CO. MAYO",,Mayo,37000,No,No,Second-Hand Dwelling house /Apartment,,53.8494839,-8.9994739,locality-political,201504
2019-5-29,"27 Fenton Green, Church Street, Kilcock",,Kildare,311013.22,No,Yes,New Dwelling house /Apartment,,53.3994266,-6.6681233,locality-political,201905
2021-9-9,"19 PRESENTATION RD, GALWAY",,Galway,400000,No,No,Second-Hand Dwelling house /Apartment,,53.2735269,-9.0621732,street_address,202109
2013-8-19,"61 St Corban's Place, Naas",,Kildare,80000,No,No,Second-Hand Dwelling house /Apartment,,53.2219595,-6.6574437,street_address,201308
2012-12-14,"3 BERESFORD HOUSE, CUSTOM HOUSE SQUARE",,Dublin,97000,No,No,Second-Hand Dwelling house /Apartment,,41.635048,-70.924628,establishment-park-point_of_interest,201212
2015-10-4,"Apartment 49  Park Lodge, 7-9 North Circular Road",Dublin 7,Dublin,256301.67,No,No,Second-Hand Dwelling house /Apartment,,53.3527022,-6.2980314,subpremise,201510
2010-12-22,"2 Lakeview, Mayfield, Claremorris",,Mayo,167400,No,Yes,New Dwelling house /Apartment,greater than 125 sq metres,53.7238764,-9.0017356,locality-political,201012
2020-9-12,"CARNAGORE, CARRIGART, DONEGAL",,Donegal,139000,No,No,Second-Hand Dwelling house /Apartment,,55.1464951,-7.8074436,neighborhood-political,202009
2018-1-2,"5 KILADREENAN CLOSE, NEWTOWNMOUNTKENNEDY, WICKLOW",,Wicklow,225000,No,No,Second-Hand Dwelling house /Apartment,,53.0855398,-6.1041803,street_address,201801
2021-4-26,"13 THE GLEBE, MONASTEREVIN, KILDARE",,Kildare,267000,No,No,Second-Hand Dwelling house /Apartment,,53.1400651,-7.060377,locality-political,202104
2021-3-19,"Clough, Gurteen, Ballinasloe",,Galway,185022,No,Yes,New Dwelling house /Apartment,,53.9904919,-8.5130247,neighborhood-political,202103
2020-5-10,"BALLYNASHEEOGE, TURLOUGHMORE, CO GALWAY",,Galway,105000,No,No,Second-Hand Dwelling house /Apartment,,53.3764972,-8.8483424,neighborhood-political,202005
2018-4-20,"28 GLENARM SQ, DARGLE RD, DUBLIN",Dublin 9,Dublin,310000,No,No,Second-Hand Dwelling house /Apartment,,53.3659109,-6.2577544,street_address,201804
2016-2-3,"2 Westgate Road, Bishopstown",,Cork,300000,No,No,Second-Hand Dwelling house /Apartment,,51.8793365,-8.523151,street_address,201602
2021-2-11,"102 Butlers View, Ballinglanna, Glanmire",,Cork,215859,No,Yes,New Dwelling house /Apartment,,51.9202494,-8.3886305,street_address,202102
2019-4-18,"15 mill gate, millerstown, kilcock",,Meath,286342.73,No,Yes,New Dwelling house /Apartment,,53.3976012,-6.6579262,street_address,201904
2018-11-23,"12 Dunville Lawn, Athlumney, Navan",,Meath,246696,No,Yes,New Dwelling house /Apartment,greater than or equal to 38 sq metres and less than 125 sq metres,53.6451708,-6.6513214,street_address,201811
2012-9-17,"7 Kilbelin Park, Newbridge",,Kildare,200500,No,No,Second-Hand Dwelling house /Apartment,,53.1724952,-6.7943198,street_address,201209
2021-4-2,"THE KOPPIE, SNEEM, ANKAIL",,Kerry,360000,No,No,Second-Hand Dwelling house /Apartment,,51.8325007,-9.8449037,neighborhood-political,202104
2013-12-12,"2 college sq, terenure",Dublin 6w,Dublin,581500,No,Yes,New Dwelling house /Apartment,greater than or equal to 38 sq metres and less than 125 sq metres,53.3065344,-6.307884,street_address,201312
2019-1-3,"93 Ballygossan Park, Golf Links Road, Skerries",,Dublin,458149,No,Yes,New Dwelling house /Apartment,,53.5694415,-6.1124213,street_address,201901
2011-7-21,"1 Na Banta, Ladysbridge",,Cork,120000,No,No,Second-Hand Dwelling house /Apartment,,51.8989662,-8.0409862,street_address,201107
2015-4-13,"14 FINISTERE, RUSH, DUBLIN",,Dublin,220000,No,No,Second-Hand Dwelling house /Apartment,,53.5207574,-6.0826339,street_address,201504
2021-1-29,"4 THE CLOISTERS, SPUNKANE, WATERVILLE",,Kerry,270000,No,Yes,New Dwelling house /Apartment,,51.8442964,-10.1687133,neighborhood-political,202101
2017-1-12,"APT 4 GREEN STORES APTS, BALLYHAUNIS RD, CLAREMORRIS",,Mayo,145000,No,No,Second-Hand Dwelling house /Apartment,,53.7207783,-8.9963812,department_store-establishment-point_of_interest-store,201701
2015-5-22,"CAPPINCUR, TULLAMORE, OFFALY",,Offaly,182000,No,No,Second-Hand Dwelling house /Apartment,,53.2759484,-7.4470303,neighborhood-political,201505
2020-2-17,"18 ST COLUMBANUS AVE, MILLTOWN, DUBLIN 14",Dublin 14,Dublin,532000,No,No,Second-Hand Dwelling house /Apartment,,53.3058861,-6.2492877,street_address,202002
2014-1-31,"EDERGOLE, DROMAHAIR, CO LEITRIM",,Leitrim,41000,No,No,Second-Hand Dwelling house /Apartment,,54.2123319,-8.3072717,neighborhood-political,201401
2015-12-18,"27 ALLENDALE AVE, BISHOPSTOWN, CORK",,Cork,155000,Yes,No,Second-Hand Dwelling house /Apartment,,51.8807904,-8.5291509,street_address,201512
2013-10-12,"62 Ard Thomain, Sli na Manach, Mungret",,Limerick,185021.48,No,Yes,New Dwelling house /Apartment,greater than or equal to 38 sq metres and less than 125 sq metres,52.6372054,-8.6766525,street_address,201310
2021-1-13,"132 THE WALLED GARDENS, CASTLEDOWN ESTATE, CELBRIDGE",,Kildare,285000,No,No,Second-Hand Dwelling house /Apartment,,53.3493108,-6.5417209,street_address,202101
2018-7-31,"18 RIVERWALK, TIR CLUAIN, MIDLETON",,Cork,200000,No,No,Second-Hand Dwelling house /Apartment,,51.9295482,-8.1877814,street_address,201807
2016-10-26,"33 FERRYVIEW PARK, PRIESTS AVE, RINGASKIDDY",,Cork,155000,No,No,Second-Hand Dwelling house /Apartment,,51.8292014,-8.3221699,street_address,201610
2016-12-16,"71 THE HEATH, BELGARD HEIGHTS, TALLAGHT DUBLIN 24",Dublin 24,Dublin,320000,No,No,Second-Hand Dwelling house /Apartment,,53.2993685,-6.3782322,street_address,201612
2011-5-11,"36 Fairfield Road, Farranree, Cork",,Cork,80000,No,No,Second-Hand Dwelling house /Apartment,,51.9159614,-8.486042,street_address,201105
2017-6-21,"SOGHER, EMYVALE, CO MONAGHAN",,Monaghan,136000,No,No,Second-Hand Dwelling house /Apartment,,54.3457527,-6.9963544,neighborhood-political,201706
2020-6-4,"25 ORCHARD DRIVE, STAMULLEN, COUNTY MEATH",,Meath,337000,No,No,Second-Hand Dwelling house /Apartment,,53.63023,-6.26834,locality-political,202006
2019-7-11,"41 WESTGATE, AUGUSTINE STREET, DUBLIN 8",Dublin 8,Dublin,63400,Yes,No,Second-Hand Dwelling house /Apartment,,53.3437372,-6.2765562,subpremise,201907
2015-10-12,"THE OLD BARRACKS, INCHIGEELAGH, BARRACKS",,Cork,395000,No,No,Second-Hand Dwelling house /Apartment,,51.8424464,-9.1264323,locality-political,201510
2020-11-8,"TEENAGH, BALLINEEN, WEST CORK",,Cork,250000,No,No,Second-Hand Dwelling house /Apartment,,51.7519677,-9.0220325,neighborhood-political,202011
2016-10-28,"34 KNOCKMORE RD, ARKLOW, WICKLOW",,Wicklow,230000,No,No,Second-Hand Dwelling house /Apartment,,52.7860954,-6.1715929,street_address,201610
2016-2-11,"13 RIVERWALK, CASTLEREA, ROSCOMMON",,Roscommon,40000,No,No,Second-Hand Dwelling house /Apartment,,53.7686571,-8.4924537,locality-political,201602
2019-6-27,"12 THE HEIGHTS, MOUNT HAMILTON, CARRICK ROAD",,Louth,220264.32,No,Yes,New Dwelling house /Apartment,,37.3418834,-121.6430017,establishment-natural_feature,201906
2015-4-14,"20 CARLETON VILLAGE, YOUGHAL, CORK",,Cork,64000,No,No,Second-Hand Dwelling house /Apartment,,51.9477833,-7.8472164,street_address,201504
2015-8-31,"SORRENTO HOUSE, 1 SORRENTO TERRACE, SORRENTO ROAD",,Dublin,10000000,No,No,Second-Hand Dwelling house /Apartment,,53.2707426,-6.0928605,premise,201508
2013-10-15,"141 Comeragh Road, Drimnagh, Dublin 12",Dublin 12,Dublin,175000,No,No,Second-Hand Dwelling house /Apartment,,53.328044,-6.3265505,street_address,201310
2013-10-12,"32 ORMOND KEEPE, O RAHILLY ST, NENAGH",,Tipperary,83000,No,No,Second-Hand Dwelling house /Apartment,,52.8667178,-8.2019877,street_address,201310
2015-9-15,"ST JOSEPH'S, KILLEA ROAD, DUNMORE EAST",,Waterford,250000,No,No,Second-Hand Dwelling house /Apartment,,52.1590144,-6.9982985,route,201509
2018-4-13,"220 THE KESTRAL, JACOBS ISLAND, BLACKROCK",,Cork,176000,No,No,Second-Hand Dwelling house /Apartment,,52.82247364,-7.74485287,,201804
2017-11-20,"THE COTTAGE, BALLINAHALLA, CLOGHEEN",,Tipperary,50000,No,No,Second-Hand Dwelling house /Apartment,,52.2770794,-7.9951028,locality-political,201711
2013-12-14,"37 Peyton Close, Stoney Road, Rathcoole",,Dublin,242291,No,Yes,New Dwelling house /Apartment,greater than or equal to 38 sq metres and less than 125 sq metres,53.2784486,-6.4722137,street_address,201312
2021-4-2,"15 CLOGHGARRET ABBEY, STATION RD, KILDARE",,Kildare,280000,No,No,Second-Hand Dwelling house /Apartment,,53.1679562,-6.9009593,street_address,202104
2012-1-13,"5 Westbourne Lawns, Clondalkin, Dublin 22",,Dublin,130000,No,No,Second-Hand Dwelling house /Apartment,,53.3227074,-6.4186304,street_address,201201
2013-7-26,"17 MILLTOWN GATE, BURGAGE MOR, BLESSINGTON",,Wicklow,157709,No,Yes,New Dwelling house /Apartment,greater than or equal to 38 sq metres and less than 125 sq metres,53.1632479,-6.5416994,street_address,201307
2016-3-23,"41 CASTLE GROVE, CLONTARF, DUBLIN 3",Dublin 3,Dublin,740000,No,No,Second-Hand Dwelling house /Apartment,,53.3686508,-6.2050031,street_address,201603
2021-1-4,"8 COURT MEWS, BRIDGE ST, TULLOW",,Carlow,69950,No,No,Second-Hand Dwelling house /Apartment,,52.8028266,-6.7368595,premise,202101
2019-5-27,"ISLAND VIEW, FRONT STRAND, YOUGHAL",,Cork,80000,Yes,No,Second-Hand Dwelling house /Apartment,,51.9430345,-7.8523566,premise,201905
2016-8-12,"2 FLOWER HILL GROVE, NAVAN, MEATH",,Meath,125000,No,No,Second-Hand Dwelling house /Apartment,,53.6565087,-6.6794173,street_address,201608
2013-1-17,"Hillview, Ballybrack, Glenville",,Cork,210000,No,No,Second-Hand Dwelling house /Apartment,,53.2487886,-6.1193627,locality-political,201301
2018-6-2,"105 MILL PARK, CLONDALKIN, DUBLIN 22",,Dublin,171000,Yes,No,Second-Hand Dwelling house /Apartment,,53.3243671,-6.4005664,premise,201806
2018-3-27,"23 Grace Park Grove, Grace Park Wood, Drumcondra",Dublin 9,Dublin,440528.63,No,Yes,New Dwelling house /Apartment,greater than or equal to 38 sq metres and less than 125 sq metres,53.3687932,-6.2457104,street_address,201803
2018-4-5,"Number 10 Dunville Road, Dunville, Athlumney",,Meath,225720,No,Yes,New Dwelling house /Apartment,greater than or equal to 38 sq metres and less than 125 sq metres,53.6445774,-6.6494189,street_address,201804
2020-11-20,"48 Fairways Gardens, Dublin Road, Dundalk",,Louth,263436,No,Yes,New Dwelling house /Apartment,,53.9667243,-6.3862195,establishment-point_of_interest,202011
2020-10-28,"34 An Garrai Gabhainn, Kylebroughlan, Moycullen",,Galway,265128.02,Yes,Yes,New Dwelling house /Apartment,,53.3350414,-9.1788763,route,202010
2011-4-8,"Ahabeg, Lixnaw",,Kerry,181300,No,No,Second-Hand Dwelling house /Apartment,,52.4060331,-9.6665719,route,201104
2012-12-20,"24 Camden Row, Portobello",Dublin 8,Dublin,625000,No,No,Second-Hand Dwelling house /Apartment,,53.336353,-6.2680368,street_address,201212
2017-10-20,"15 KILBRIDE CLOSE, KILBRIDE GARDENS, CLARA",,Offaly,115000,No,No,Second-Hand Dwelling house /Apartment,,53.3459801,-7.6125534,street_address,201710
2020-12-21,"3 APPLEWOOD MEWS, SWORDS, DUBLIN",,Dublin,248527,No,No,Second-Hand Dwelling house /Apartment,,53.4706739,-6.2318361,street_address,202012
2021-12-22,"29 DONNYBROOK GARDENS, GREENFIELD PARK, DONNYBROOK",,Dublin,920705,No,Yes,New Dwelling house /Apartment,,53.3123969,-6.2284573,establishment-point_of_interest,202112
2019-8-10,"TULLY, LONGFORD, LONGFORD",,Longford,110000,Yes,No,Second-Hand Dwelling house /Apartment,,53.7276296,-7.7932573,locality-political,201908
2014-12-23,"KNOCKENAUGH, ARDFERT, KERRY",,Kerry,67600,No,No,Second-Hand Dwelling house /Apartment,,52.3273888,-9.7693245,neighborhood-political,201412
2020-8-1,"TOBINSTOWN SCHOOLHOUSE, TOBINSTOWN, TULLOW",,Carlow,120000,Yes,No,Second-Hand Dwelling house /Apartment,,52.8396779,-6.6817138,neighborhood-political,202008
2014-3-24,"KILLARD ROAD, DOONBEG, CO CLARE",,Clare,220000,No,No,Second-Hand Dwelling house /Apartment,,52.7331875,-9.5316137,route,201403
2017-12-6,"50 Togher Way, Urlingford",,Kilkenny,178000,Yes,Yes,New Dwelling house /Apartment,greater than or equal to 38 sq metres and less than 125 sq metres,52.7154957,-7.5869484,street_address,201712
2013-11-15,"Killoo, Clarecastle",,Clare,255000,No,No,Second-Hand Dwelling house /Apartment,,52.8147376,-8.9642515,locality-political,201311
2016-8-8,"107 BALLYMUN RD, GLASNEVIN, DUBLIN 9",Dublin 9,Dublin,560000,No,No,Second-Hand Dwelling house /Apartment,,53.3780835,-6.2683085,street_address,201608
2021-11-5,"307 HARBOUR COURT, SLIGO, SLIGO",,Sligo,110000,No,No,Second-Hand Dwelling house /Apartment,,54.2739598,-8.4784921,premise,202111
2018-3-21,"Clondulane South, Fermoy",,Cork,175000,Yes,Yes,New Dwelling house /Apartment,greater than or equal to 38 sq metres and less than 125 sq metres,52.1372719,-8.2812256,locality-political,201803
2015-5-29,"3 MALTON, 31 33 MERRION RD, BALLSBRIDGE DUBLIN 4",Dublin 4,Dublin,690000,No,No,Second-Hand Dwelling house /Apartment,,53.3248811,-6.2221911,subpremise,201505
2013-12-19,"13 morrison house, cork",,Cork,77000,No,No,Second-Hand Dwelling house /Apartment,,51.896577,-8.4691626,establishment-point_of_interest,201312
2014-6-24,"1 WOODFORD, MELBOURN RD, BISHOPSTOWN",,Cork,174000,No,No,Second-Hand Dwelling house /Apartment,,51.88183,-8.52751,route,201406
2016-11-29,"APARTMENT 9, BALLYBANE VILLAGE, GALWAY",,Galway,73500,No,No,Second-Hand Dwelling house /Apartment,,53.2798186,-9.0078299,street_address,201611
2019-3-15,"6 ROSSLYN GROVE, BRAY, WICKLOW",,Wicklow,425000,No,No,Second-Hand Dwelling house /Apartment,,53.1993606,-6.1108138,street_address,201903
2016-2-18,"45 THOMAS ST, CLOMEL, TIPPERARY",,Tipperary,70000,No,No,Second-Hand Dwelling house /Apartment,,52.3575082,-7.6974707,street_address,201602
2018-9-4,"MAIN ST, CRAUGHWELL, GALWAY",,Galway,215000,No,No,Second-Hand Dwelling house /Apartment,,53.2302689,-8.7347736,locality-political,201809
2018-1-26,"1 OAKDALE CLOSE, BALLYCULLEN, DUBLIN 24",Dublin 24,Dublin,387500,No,No,Second-Hand Dwelling house /Apartment,,53.2727292,-6.3376742,street_address,201801
2020-10-3,"220 PALACE FIELDS, TUAM, GALWAY",,Galway,240000,No,No,Second-Hand Dwelling house /Apartment,,53.522592,-8.846594,street_address,202010
2015-6-19,"LISDOONAN, CARRICKMACROSS, CO MONGAGHAN",,Monaghan,25000,No,No,Second-Hand Dwelling house /Apartment,,54.0264537,-6.7585351,neighborhood-political,201506
2013-1-16,"Woodlands Lodge, Knocklofty, Clonmel",,Tipperary,265000,No,No,Second-Hand Dwelling house /Apartment,,52.3305662,-7.7904808,premise,201301
2019-4-26,"3 SCHOOL AVE, KILLESTER, DUBLIN 5",Dublin 5,Dublin,470000,No,No,Second-Hand Dwelling house /Apartment,,53.3840559,-6.1920739,postal_town,201904
