DateofSale,Address,PostalCode,County,Price,NotFullMarketPrice,VATExclusive,DescriptionofProperty,PropertySizeDescription,lat,lng,address_types,formatted_address,transformed_address,YearMonth
2017-03-03,"86 MULLAGHMATT, MONAGHAN",,17,65000.0,1,0,1,,54.2406427,-6.9811991,64,"86 Mullaghmatt, Monaghan, Ireland",5212,201703
2020-12-03,"13 FABER GROVE, DUN LAOGHAIRE, DUBLIN",,5,320000.0,0,0,1,,53.28323409999999,-6.1569253,64,"13 Faber Grove, Dún Laoghaire, Dublin, A96 V8N4, Ireland",3441,202012
2010-09-07,"32 Allenton Drive, Tallaght",Dublin 24,5,194000.0,0,0,1,,53.2717572,-6.3529862,64,"32 Allenton Dr, Ballycragh, Dublin 24, D24 V24N, Ireland",1267,201009
2019-10-29,"15 An Fuaran, Dublin Road, Oranmore",,6,345010.0,0,1,0,,53.2695967,-8.9251211,64,"15 An Fuarán, Millplot, Oranmore, Co. Galway, Ireland",1296,201910
2019-11-07,"CHERRYORCHARD, ENNISCORTHY, WEXFORD",,24,172000.0,0,0,1,,52.5069324,-6.58767,63,"Cherryorchard, Enniscorthy, Co. Wexford, Ireland",532,201911
2018-10-31,"7 CONVENT VIEW, ATHY, KILDARE",,8,80000.0,0,0,1,,52.99392030000001,-6.979472899999999,64,"Saint Helenes, 7 Convent View, Athy, Co. Kildare, R14 E377, Ireland",4039,201810
2019-04-30,"25 GRAND CANAL WHARF, SOUTH DOCK RD, RINGSEND DUBLIN 4",Dublin 4,5,425000.0,0,0,1,,53.3423163,-6.2315578,62,"Grand Canal Wharf, S Dock Rd, Dublin 4, Ireland",2124,201904
2019-12-23,"66 THE MALTHOUSE, MARROWBONE LANE, DUBLIN 8",Dublin 8,5,204000.0,0,0,1,,53.3384198,-6.2876395,62,"The Malthouse, Marrowbone Ln, Saint Catherine's, Dublin 8, Ireland",4813,201912
2021-05-10,"GERNONSTOWN, SLANE, MEATH",,16,310000.0,0,0,1,,53.7220701,-6.5921024,63,"Gernonstown, Co. Meath, Ireland",415,202105
2021-08-11,"107 COLLEGE HILL, MULLINGAR, WESTMEATH",,23,300000.0,0,0,1,,53.5413185,-7.3583875,64,"107 College Hill, Ballyglass, Mullingar, Co. Westmeath, N91 D4E2, Ireland",2704,202108
2014-12-02,"10 GRATTAN TERRACE, DUNTAHEEN RD, FERMOY",,3,60000.0,0,0,1,,52.1354437,-8.2826606,62,"Grattan Terrace, Duntaheen Rd, Duntahane, Fermoy, Co. Cork, Ireland",6912,201412
2020-08-20,"23 Dodderbrook Lawn, Old Court Road, Ballycullen",,5,361233.48,0,1,0,,53.2700459,-6.341590699999999,29,"Oldcourt Rd, Oldcourt, Dublin, Ireland",5976,202008
2017-05-05,"THE SHOP, MAIN STREET, STONEYFORD",,9,22500.0,0,0,1,,52.822473642491516,-7.744852870130693,0,,0,201705
2017-07-27,"13 RICHMOND HALL, MOUNT ST ANNES, MILLTOWN DUBLIN 6",Dublin 6,5,301762.11,0,1,0,greater than or equal to 38 sq metres and less than 125 sq metres,53.3115075,-6.249276399999999,62,"Apartment 23, Richmond Hall, Milltown Ave, Mount St Annes, Dublin 6, Ireland",1057,201707
2013-11-03,"106 Louisa Park, Station Road, Leixlip",,8,76500.0,0,0,1,,53.37013959999999,-6.5047412,62,"Louisa Park, Station Rd, Leixlip, Co. Kildare, Ireland",5522,201311
2017-04-13,"Apartment 78 Neptune Block, Honeypark, Dun-Laoghaire",,5,308370.04,0,1,0,greater than or equal to 38 sq metres and less than 125 sq metres,53.280867,-6.1455281,58,"Honeypark, Dublin, Ireland",512,201704
2021-06-08,"ABBEY ST, BALLINROBE, MAYO",,15,125000.0,0,0,1,,53.6260415,-9.2193674,63,"Abbey St, Friarsquarter West, Co. Mayo, Ireland",6564,202106
2016-08-02,"1 MCDERMOTT MEWS, GARDEN ST, BALLINA",,15,82000.0,0,0,1,,54.1149444,-9.1595903,62,"McDermott Mews, Ballina, Co. Mayo, Ireland",5010,201608
2015-11-16,"12 THE MEWS, RUSHBROOKE LINKS BALLYNOE, COBH",,3,90000.0,0,0,1,,51.8503357,-8.294285799999999,57,"Cobh, Co. Cork, Ireland",400,201511
2016-02-12,"INVER, BARNATRA, BALLINA",,15,140000.0,0,0,1,,54.1149482,-9.1550693,57,"Ballina, Co. Mayo, Ireland",414,201602
2014-09-07,"11 APARTMENT BLOCK, OXMANTOWN GREEN, BLACKHALL PLACE",,5,197885.0,0,0,1,,53.3483576,-6.2816044,62,"Apartment 1, Oxmantown Green, Blackhall Pl, Smithfield, Dublin 7, Ireland",993,201409
2016-12-20,"12 CABRA PARK, PHIBSBOROUGH, DUBLIN 7",Dublin 7,5,402000.0,0,0,1,,53.3621164,-6.2773623,64,"12 Cabra Park, Cabra East, Dublin 7, D07 W427, Ireland",2084,201612
2018-08-03,"14 ANNFIELD VIEW, CARPENTERSTOWN RD, CASTLEKNOCK DUBLIN 15",Dublin 15,5,257500.0,0,0,1,,53.3760977,-6.3909926,64,"15 Carpenterstown Road, Carpenterstown, Castleknock, Co. Dublin, Ireland",2165,201808
2016-04-02,"13 SUMMERSEAT GREEN, CLONEE, CO.MEATH",,16,160000.0,0,1,0,greater than or equal to 38 sq metres and less than 125 sq metres,53.407742,-6.4445028,64,"13 Summerseat Green, Co. Meath, Ireland",6813,201604
2018-12-12,"56 PEMBROKE LANE, DUBLIN 2, DUBLIN",Dublin 2,5,600000.0,0,0,1,,53.33645749999999,-6.2516719,64,"56 Pembroke Ln, Dublin, D02 KN59, Ireland",5612,201812
2014-07-31,"CARRICK LODGE, 13 CARRICK TERRACE, RIALTO",,5,197000.0,0,0,1,,53.33586409999999,-6.293267300000001,62,"Carrick Lodge, 13 Carrick Terrace, Rialto, Dublin 8, D08 Y2R6, Ireland",4676,201407
2014-06-17,"62 MOUNT PROSPECT DR, CLONTARF, DUBLIN 3",Dublin 3,5,541000.0,0,0,1,,53.36844499999999,-6.1886244,64,"62 Mount Prospect Dr, Clontarf, Dublin 3, D03 A394, Ireland",5157,201406
2011-08-20,"Crosstown, Wexford",,24,260000.0,0,0,1,,52.3554415,-6.463532,58,"Crosstown, Co. Wexford, Ireland",423,201108
2014-07-15,"29 Curragh Hall Green, Tyrellstown, Castleknock",Dublin 15,5,151900.0,0,0,1,,53.4151547,-6.3875499,64,"29 Curragh Hall Green, Tyrrelstown, Dublin, D15 H6XD, Ireland",3037,201407
2018-10-12,"KILMAGLUSH, FENAGH RD, MYSHALL",,0,300000.0,0,0,1,,52.7146188,-6.821348,58,"Kilmaglush, Co. Carlow, Ireland",396,201810
2019-05-04,"10 SLIEVEKEILE RD, WATERFORD CITY, WATERFORD",,22,90000.0,0,0,1,,52.2543952,-7.1249043,64,"10 Bernard Pl, Slievekeale Rd, Waterford, X91 W2XK, Ireland",1805,201905
2016-06-09,"146 ACHA BHILE, LAHINCH ROAD",,2,68281.0,0,1,0,greater than or equal to 38 sq metres and less than 125 sq metres,52.8587411,-9.012063699999999,62,"Acha Bhile, Lahinch Rd, Loughvella, Ennis, Co. Clare, Ireland",1814,201606
2015-08-31,"491, Collins Avenue, Whitehall",Dublin 9,5,465000.0,0,0,1,,53.3831441,-6.2469907,64,"Cascia, 491 Collins Ave W, Whitehall, Dublin, D09 H682, Ireland",138,201508
2020-12-22,"29 COILL AOIBHINN, NEWTOWN RD, WEXFORD",,24,345000.0,0,0,1,,52.3424518,-6.5049572,64,"29 Coill Aoibhinn, Ballyboggan, Co. Wexford, Y35 E8E2, Ireland",2654,202012
2018-04-05,"55 THE COTSWALDS, CASTLEREDMOND, MIDLETON",,3,310000.0,0,0,1,,51.9048306,-8.1691485,64,"55 The Cotswolds, Castleredmond, Midleton, Co. Cork, P25 DN27, Ireland",6984,201804
2015-12-17,"42 RED ARCHES DR, THE COAST, BALDOYLE DUBLIN 13",Dublin 13,5,225000.0,0,0,1,,53.4020553,-6.1400771,64,"42 Red Arches Dr, The Coast, Dublin 13, D13 AK70, Ireland",6027,201512
2015-01-19,"33 ST BRENDANS COTTAGES, IRISHTOWN, DUBLIN 4",Dublin 4,5,296500.0,0,0,1,,53.3405174,-6.2237604,64,"33 Saint Brendan's Cottages, Dublin 4, D04 H6F5, Ireland",6294,201501
2016-09-27,"3 Phelan Avenue, Royal Canal Park, Ashtown",Dublin 15,5,308400.0,0,1,0,greater than or equal to 38 sq metres and less than 125 sq metres,53.3761976,-6.3150048,64,"3 Phelan Ave, Ashtown, Dublin, D15 NFN8, Ireland",5625,201609
2015-12-18,"49 RIVERWALK, MAIN ST, CASTLEREA",,19,20500.0,0,0,1,,53.7686571,-8.4924537,57,"Demesne, Castlerea, Co. Roscommon, Ireland",366,201512
2014-06-08,"Apartment 19, The Reeks Gateway, Killarney",,7,32727.0,0,1,0,greater than or equal to 38 sq metres and less than 125 sq metres,52.0681869,-9.5171266,62,"The Reeks Gateway, Tralee Rd, Ardnamweely, Killarney, Co. Kerry, Ireland",6035,201406
2012-08-31,"13 Martello Court, Portmarnock",,5,400000.0,0,0,1,,53.4347995,-6.1355539,64,"13 Martello Ct, Carrickhill, Portmarnock, Co. Dublin, D13 RD25, Ireland",4913,201208
2010-08-30,"No. 7 Arranmore View, Roshin Acres, Burtonport",,4,133762.11,0,1,0,greater than or equal to 38 sq metres and less than 125 sq metres,54.9874345,-8.5350585,41,"Arranmore, Co. Donegal, Ireland",402,201008
2020-12-02,"17 SOMERTON PARK, BALLINLOUGH, CORK",,3,290000.0,0,0,1,,51.8876313,-8.4421162,64,"17 Somerton Park, Ballinlough, Cork, T12 HK5P, Ireland",6475,202012
2020-10-12,"THE DIAMOND, CASTLEFIN, LIFFORD",,4,67000.0,0,0,1,,54.802999,-7.5895814,57,"Castlefinn, Co. Donegal, Ireland",402,202010
2018-05-29,"38 St Edmunds Grove, Loman&#039;s Road",,5,420000.0,0,0,0,greater than or equal to 38 sq metres and less than 125 sq metres,52.822473642491516,-7.744852870130693,0,,0,201805
2016-02-17,"APT 26, ABBEY COURT, WEXFORD",,24,113000.0,0,0,1,,52.3404204,-6.4658583,62,"Abbey Court, Upper george's St, Ferrybank South, Wexford, Ireland",2924,201602
2017-12-21,"2 CASTLE VILLAGE PARK, CELBRIDGE, KILDARE",,8,305000.0,0,0,1,,53.3517488,-6.5475764,64,"2 Castle Village Park, Thornhill, Celbridge, Co. Kildare, W23 YC91, Ireland",2252,201712
2017-03-15,"34 FINN ST, DUBLIN 7, DUBLIN",Dublin 7,5,255000.0,0,0,1,,53.3529911,-6.2907442,64,"34 Finn St, Arbour Hill, Stoneybatter, Dublin, D07 H5W7, Ireland",3539,201703
2019-05-20,"58 FINLAY PARK, OLD CARRAGH ROAD, NAAS",,8,348017.0,0,1,0,,53.22052720000001,-6.673657,64,"58 Finlay Park, Naas West, Co. Kildare, W91 K3E5, Ireland",3536,201905
2012-09-24,"1 Lambourne Village, Clontarf",,5,140000.0,0,0,1,,53.3644733,-6.207940199999999,64,"1 Lambourne Village, Clontarf, Dublin 3, D03 KT95, Ireland",4498,201209
2021-04-23,"304 CUBES 3, BEACON SOUTH QUARTER, BLACKTHORN RD",Dublin 18,5,383500.0,0,0,1,,53.2775421,-6.2166745,39,"Blackthorn Rd, Sandyford, Dublin, Ireland",5990,202104
2020-08-09,"29 TI NA RI, ATHENRY RD, LOUGHREA",,6,262000.0,0,0,1,,53.2037947,-8.584439399999999,64,"29 Tí Na Rí, Cosmona, Loughrea, Co. Galway, H62 F677, Ireland",7323,202008
2020-11-19,"4 DRISARDEN, GORTLEE, LETTERKENNY",,4,125000.0,0,0,1,,54.9569281,-7.7200698,64,"4 Drisarden, Gortlee, Letterkenny, Co. Donegal, F92 XAF4, Ireland",3192,202011
2017-10-31,"8 CARRICK CRESCENT, BALLYBOFEY, DONEGAL",,4,120000.0,1,0,1,,54.7930934,-7.796285200000001,64,"8 Carrick Cres, Ballybofey, Co. Donegal, F93 YH52, Ireland",2179,201710
2013-06-09,"RAHEEN, BANTRY",,3,119000.0,0,0,1,,51.6800803,-9.452576299999999,57,"Bantry, Co. Cork, Ireland",400,201306
2013-01-30,"18 Glen Corrin, Watergrasshill, Cork",,3,150000.0,0,1,0,greater than or equal to 38 sq metres and less than 125 sq metres,52.0166368,-8.3396932,44,"1 Gleann Corráin, Meenane, Watergrasshill, Co. Cork, T56 YY29, Ireland",3687,201301
2018-10-26,"38 ROSSANA CLOSE, ASHFORD, WICKLOW",,25,38000.0,1,0,1,,53.0032685,-6.108809000000001,64,"38 Rossana Cl, Ballinalea, Ashford, Co. Wicklow, A67 RW60, Ireland",6229,201810
2016-01-19,"4 GLEANN ARAS VIEW, GRENAGH, CORK",,3,180000.0,1,0,1,,52.0115142,-8.6082199,64,"4 Gleann Aras View, Grenagh North, Grenagh, Co. Cork, T23 RH2T, Ireland",3682,201601
2011-12-09,"Lissacarrow, Fuerty",,19,150000.0,0,0,1,,53.6131024,-8.2591228,58,"Fuerty, Co. Roscommon, Ireland",418,201112
2016-10-11,"47 TRIOG MANOR, PORTLAOISE, LAOIS",,10,120000.0,1,0,1,,53.04269069999999,-7.304625,64,"47 Triogue Manor, Borris Little, Portlaoise, Co. Laois, R32 X5R3, Ireland",7289,201610
2021-05-05,"80 Longview Avenue, Millers Glen, Swords",,5,400881.0,0,1,0,,53.4716715,-6.242721899999999,44,"Longview Ave, Oldtown, Co. Dublin, Ireland",1507,202105
2010-05-02,"Apartment 24, Green Park, Dundalk",,14,387665.0,0,1,0,greater than 125 sq metres,53.9979451,-6.405957,57,"Dundalk, Co. Louth, Ireland",413,201005
2014-10-01,"3 Beverton Court, Donabate",,5,75000.0,0,0,1,,53.48792160000001,-6.1586016,64,"3 Beverton Ct, Ballalease West, Donabate, Co. Dublin, Ireland",1812,201410
2021-05-02,"37 THE ELMS, LOUGH NA GLACK, CARRICKMACROSS",,17,101321.59,0,1,0,,53.9667257,-6.699143599999999,41,"Lough Naglack, Co. Monaghan, Ireland",5251,202105
2017-07-20,"CASTLETOWN, TARA, CO MEATH",,16,100000.0,1,0,1,,53.5893117,-6.6326481,58,"Castletown Tara, Co. Meath, Ireland",6861,201707
2020-08-20,"17 KINCORA DR, CLONTARF, DUBLIN 3",Dublin 3,5,740000.0,0,0,1,,53.36444419999999,-6.2100901,64,"17 Kincora Dr, Clontarf, Dublin 3, D03 HP77, Ireland",4427,202008
2013-02-28,"18 Saint Columbas Road, Greenhills, Dublin",Dublin 12,5,123750.0,1,0,1,,53.3116835,-6.3396464,64,"18 St Columba's Rd, Greenhills, Dublin 12, D12 R3K2, Ireland",6637,201302
2018-03-29,"13 GRACES PARK, DERRINTORN, CARBURY",,8,218000.0,0,0,1,,53.3369091,-6.9331613,64,"13 Grace's Park, Dreenan, Derrinturn, Co. Kildare, W91 HX43, Ireland",3800,201803
2014-10-07,"16 GRANVILLE RD, DUN LAOGHAIRE, DUBLIN",,5,515000.0,0,0,1,,53.2638765,-6.144624299999999,64,"16 Granville Rd, Glenageary, Dublin, A96 CX61, Ireland",3839,201410
2020-03-11,"BALLINTUBBER, CLAREMORRIS, MAYO",,15,84000.0,1,0,1,,53.72387639999999,-9.0017356,57,"Clare, Claremorris, Co. Mayo, Ireland",380,202003
2018-05-06,"27 MELVILLE RISE, CITYSIDE, MEAKSTOWN DUBLIN 11",Dublin 11,5,155000.0,0,0,1,,53.4027159,-6.298639700000001,64,"27 Melville Rise, Meakstown, Dublin, Ireland",4995,201805
2015-03-27,"10 ELM COURT, THE PARK, KILLARNEY",,7,172000.0,0,0,1,,52.06416,-9.491131,63,"Elm Ct, Killarney, Co. Kerry, Ireland",3013,201503
2021-08-03,"4 BRENNANSTOWN AVE, CABINTEELY, DUBLIN 18",Dublin 18,5,700000.0,0,0,1,,53.2573908,-6.150351700000001,64,"4 Brennanstown Ave, Kilbogget, Cabinteely, Co. Dublin, D18 Y967, Ireland",1969,202108
2014-10-17,"24 LIR PARK, CASTLEPOLLARD, WESTMEATH",,23,110000.0,0,0,1,,53.6808188,-7.287693699999999,64,"24 Lir Park, Townparks, Castlepollard, Co. Westmeath, N91 E0V8, Ireland",4628,201410
2013-10-31,"No 70, Friars Walk, Cork City",,3,15000.0,0,0,1,,51.8889486,-8.4793477,64,"70 Friars Walk, Deerpark, Ballyphehane, Cork, T12 ECA3, Ireland",3600,201310
2020-02-04,"6 SUMMERFIELDS, COBH, CO CORK",,3,175000.0,0,0,1,,51.8527831,-8.3046654,64,"6 Summerfields, Ballyvoloon, Cobh, Co. Cork, P24 X851, Ireland",6809,202002
2011-08-08,"44 Hermitage, Ennis",,2,73500.0,0,0,1,,52.84520449999999,-8.991891599999999,64,"44 Hermitage, Cloughleigh, Ennis, Co. Clare, V95 E1WA, Ireland",4046,201108
2015-02-12,"9 BROOKHURST, COLLINS AVE, DUNMORE RD",,22,230000.0,0,0,1,,52.2402585,-7.0745143,59,"Collins Avenue, Waterford, Ireland",1517,201502
2019-07-25,"39 MILLRACE RD, PHEONIX PARK RACECOURSE, CASTLEKNOCK DUBLIN 15",Dublin 15,5,310000.0,0,0,1,,53.3727231,-6.3360501,63,"Millrace Rd, Pelletstown, Dublin, Ireland",5978,201907
2016-02-17,"25 The Links, Elm Park, Merrion Road",Dublin 4,5,167117.0,0,0,1,,53.3138802,-6.2074079,44,"The Links, Elmpark, Merrion Rd, Dublin 4, Co. Dublin, Ireland",4614,201602
2017-10-31,"5 KINVARA AVE, NAVAN RD, DUBLIN 7",Dublin 7,5,450000.0,0,0,1,,53.36915010000001,-6.3176884,64,"5 Kinvara Ave, Ashtown, Dublin 7, D07 R984, Ireland",4433,201710
2019-09-17,"8 MAGENNIS SQ, MAGENNIS PLACE, DUBLIN 2",Dublin 2,5,316500.0,0,0,1,,53.34499,-6.2480366,64,"8 Magennis Square, Dublin, Ireland",4792,201909
2012-06-22,"28 Whitechurch Ave, Rathfarnham",Dublin 14,5,103000.0,0,0,1,,53.2778362,-6.2911493,64,"28 Whitechurch Ave, Ballyboden, Dublin 16, D16 AD79, Ireland",7572,201206
2021-08-23,"13 RATH NA GLOINE, DROMISKIN, DUNDALK",,14,213000.0,0,0,1,,53.9217123,-6.401009200000001,57,"Dromiskin, Co. Louth, Ireland",413,202108
2019-11-13,"DRUMCOLE, BELTURBET, CAVAN",,1,265000.0,0,0,1,,54.1071201,-7.4766748,58,"Drumcole, Co. Cavan, Ireland",398,201911
2019-03-14,"No. 32, The Corner Site, Fairfield",,7,96917.0,0,1,0,,41.1408363,-73.2612615,57,"Fairfield, CT, USA",327,201903
2011-06-09,"22 Kincora Park, Clontarf",Dublin 3,5,685000.0,0,0,1,,53.3613217,-6.2002292,64,"22 Kincora Park, Clontarf, Dublin 3, D03 A316, Ireland",4428,201106
2010-03-12,"Carrowcashel, Riverstown",,20,150000.0,0,0,1,,52.822473642491516,-7.744852870130693,0,,0,201003
2018-06-25,"Bunker's Hill, Curracloe, County Wexford",,24,150000.0,0,1,0,greater than or equal to 38 sq metres and less than 125 sq metres,52.3931816,-6.3921174,57,"Barnahask, Curracloe, Co. Wexford, Ireland",468,201806
2010-08-20,"42 Thornberry, Truskey West, Barna",,6,200000.0,0,1,0,less than 38 sq metres,53.2534352,-9.155672599999999,64,"42 Thornberry, Trusky West, Barna, Co. Galway, H91 D155, Ireland",7224,201008
2018-12-01,"23 HILLVIEW EST, DUNSHAUGHLIN, MEATH",,16,150000.0,0,0,1,,53.516827,-6.5416325,64,"23 Hillview Estate, Grangend, Dunshaughlin, Co. Meath, A85 RH96, Ireland",4112,201812
2017-08-28,"26 KILQUADE HILL, KILQUADE, WICKLOW",,25,685000.0,0,0,1,,53.1001559,-6.084816,64,"26 Kilquade Hill, Kilquade, Co. Wicklow, A63 W898, Ireland",4410,201708
2016-07-04,"APT 6, RAHENY WOOD, RAHENY RD DUBLIN 5",Dublin 5,5,162000.0,0,0,1,,53.3835247,-6.1772181,62,"Raheny Wood, Raheny Rd, Donaghmede, Dublin 5, Ireland",7667,201607
2018-07-12,"ROSE COTTAGE, GLENADE, LEITRIM",,11,45000.0,0,0,1,,54.16593,-8.269029999999999,57,"Garvagh, Rose Cottage, Co. Leitrim, Ireland",840,201807
2012-09-17,"Baptistgrange, Lisronagh, Clonmel",,21,185000.0,0,0,1,,52.417443,-7.7028889,57,"Shanbally, Lisronagh, Co. Tipperary, Ireland",704,201209
2015-09-14,"7 LONGVIEW AVENUE, MILLERS GLEN, SWORDS",,5,246651.59,0,1,0,greater than or equal to 38 sq metres and less than 125 sq metres,53.4716715,-6.242721899999999,44,"Longview Ave, Oldtown, Co. Dublin, Ireland",1507,201509
2019-09-04,"FYANSTOWN, KELLS, COUNTY MEATH",,16,155000.0,0,0,1,,53.7232055,-6.8188456,58,"Fyanstown, Co. Meath, Ireland",415,201909
2016-07-04,"18 HARBOUR COURT, GEORGES PLACE, DUN LAOGHAIRE",,5,460000.0,0,0,1,,53.2947752,-6.1393464,63,"George's Pl, Dún Laoghaire, Dublin, Ireland",5653,201607
2012-07-06,"17 Carriglea Downs, Dun Laoghaire",,5,235000.0,0,0,1,,53.27762269999999,-6.3402862,64,"17 Carriglea Downs, Tallaght, Dublin 24, D24 A2R0, Ireland",2192,201207
2016-12-08,"CASTLEROCHE, DUNDALK, CO LOUTH",,14,51500.0,0,0,1,,53.9979451,-6.405957,57,"Dundalk, Co. Louth, Ireland",413,201612
2018-05-14,"MAIN ST, TARBERT, CO KERRY",,7,35000.0,0,0,1,,52.5725966,-9.3751312,57,"Tieraclea Lower, Tarbert, Co. Kerry, Ireland",4750,201805
2019-05-02,"4 KILLRAINEY HOUSE, CHURCH RD, MOYCULLEN",,6,90000.0,0,0,1,,53.3410993,-9.1759725,62,"Apartment 2, Killrainey House, Church Rd, Ballycuirke West, Moycullen, Co. Galway, Ireland",1043,201905
2017-01-20,"97 GREENFIELDS, ROSBRIEN, LIMERICK",,12,160000.0,0,0,1,,52.6469838,-8.6332899,64,"97 Greenfields, Rossbrien, Limerick, V94 EY6F, Ireland",3866,201701
2020-01-15,"FIAN, TARMONSCROSS, WATERVILLE",,7,160000.0,0,0,1,,52.822473642491516,-7.744852870130693,0,,0,202001
2016-08-12,"1 Barnwell Square West, Barnwell Square, Hansfield",Dublin 15,5,263777.54,0,1,0,greater than or equal to 38 sq metres and less than 125 sq metres,53.3916459,-6.4435736,64,"1 Barnwell Square W, Hansfield, Dublin, D15 K6XC, Ireland",1606,201608
2012-12-12,"33 Clifden Glen, Clifden, Co. Galway",,6,59995.0,0,0,1,,53.4879208,-9.9842488,64,"33 Clifden Glen, Couravoughil, Clifden, Co. Galway, H71 EY95, Ireland",2503,201212
2010-02-17,"195 Rusheeny Village, Clonsilla",,5,205000.0,0,0,1,,53.3868977,-6.4244504,58,"Clonsilla, Dublin, Ireland",512,201002
2021-03-02,"28 KNOCKAULIN DRIVE, FERBANE, COUNTY OFFALY",,18,160000.0,0,0,1,,53.2769212,-7.829810999999999,62,"28 Knockaulin Dr, Ferbane, Co. Offaly, R42 PX57, Ireland",4446,202103
2015-12-11,"4 Maudlin Road, Kells",,16,108000.0,0,0,1,,53.7318041,-6.8732367,64,"4 The Glebe, Maudlin Rd, Maudlin, Kells, Co. Meath, A82 P2N9, Ireland",7054,201512
2018-07-03,"153 SALLINS BRIDGE, SALLINS, KILDARE",,8,370000.0,0,0,1,,53.2508061,-6.663240200000001,64,"153 Sallins Bridge, Sallins, Co. Kildare, W91 W2P9, Ireland",6296,201807
2016-08-09,"22 RIVERSTOWN HOUSE, SPENCER DOCK, DUBLIN 1",Dublin 1,5,315000.0,0,0,1,,53.3499576,-6.237982499999999,44,"North Dock, Dublin, Co. Dublin, Ireland",3150,201608
2021-05-18,"BALLINANIMA, KILFINANE, COUNTY LIMERICK",,12,178000.0,0,0,1,,52.3586898,-8.4672787,57,"Kilfinnane, Kilfinane, Co. Limerick, Ireland",629,202105
2018-12-19,"109 BEECHWOOD COURT, STILLORGAN RD, STILLORGAN",,5,400000.0,0,0,1,,53.2813387,-6.191225699999999,64,"109 Beechwood Ct, Galloping Green North, Dublin, A94 T262, Ireland",1716,201812
2017-03-29,"131 AN CAISLEAN, BALLINCOLLIG, CORK",,3,210000.0,0,0,1,,51.8841976,-8.604748299999999,59,"An Caisleán, Ballincollig, Co. Cork, Ireland",2103,201703
2016-03-22,"51 BROOKLAWN, STRANDVILE AVE EAST, CLONTARF DUBLIN 3",Dublin 3,5,300000.0,0,0,1,,53.3654616,-6.219144900000001,64,"51 Brooklawn, Clontarf, Dublin, Ireland",2016,201603
2015-07-08,"33 Castle Meadows, Skehard Road, CORK",,3,227000.0,0,0,1,,51.8920274,-8.3965072,64,"33 Castle Meadows, Mahon, Cork, Ireland",2243,201507
2015-09-30,"5 Mullawn Crescent, Tullow, County Carlow",,0,110000.0,0,1,0,greater than or equal to 38 sq metres and less than 125 sq metres,52.7978184,-6.7323992,64,"5 Mullawn Cres, Templeowen, Tullow, Co. Carlow, R93 CT86, Ireland",5214,201509
2012-11-28,"Apartment No. 5 The Green, Kensington Lodge, Rochestown Avenue  Dun Laoighaire",,5,154000.0,0,0,1,,53.2780899,-6.1535517,62,"Kensington Lodge, Rochestown Ave, Dún Laoghaire, Dublin, Ireland",4705,201211
2016-04-25,"UNIT 39, CARRAIG ABHAINN, MORTARSTOWN RD",,0,65000.0,0,0,1,,52.8252731,-6.938358099999999,64,"39 Carraig Abhainn, Moanacurragh, Carlow, Ireland",2169,201604
2020-10-29,"67 EVERGREEN RD, CORK, CORK",,3,130000.0,0,0,1,,51.8903484,-8.4705201,64,"67 Evergreen Rd, Cork, Ireland",3433,202010
2013-02-13,"52 The Brambles, Pontoon Road, Castlebar",,15,195000.0,0,0,1,,53.8674958,-9.2931394,64,"52 The Brambles, Castlebar, Co. Mayo, Ireland",6958,201302
2017-10-03,"5 thorndale, delgany",,25,427313.0,0,1,0,greater than or equal to 38 sq metres and less than 125 sq metres,53.134942,-6.0890809,64,"5 Thorndale, Delgany, Co. Wicklow, A63 FD62, Ireland",7233,201710
2015-04-24,"47 CROYDON GREEN, MARINO, DUBLIN 3",Dublin 3,5,375000.0,0,0,1,,53.3669509,-6.2372236,64,"47 Croydon Green, Dublin 3, D03 W8N5, Ireland",2996,201504
2016-04-22,"2 CAROLANS COURT & OTHER PROPERTIES, KILRONAN CASTLE, BALLYFARNON",,19,960000.0,0,0,1,,52.822473642491516,-7.744852870130693,0,,0,201604
2015-02-17,"THE COTTAGE, ARDAMINE, GOREY",,24,90000.0,0,0,1,,52.61825,-6.229019999999999,57,"Glen (Richards), Ardamine, Co. Wexford, Ireland",4,201502
2015-11-25,"17  Monalin Hills, Newtownmountkennedy",,25,237004.39,0,1,0,greater than or equal to 38 sq metres and less than 125 sq metres,53.0927815,-6.112023,57,"Kilmacullagh, Newtown Mount Kennedy, Co. Wicklow, Ireland",783,201511
2020-07-04,"NO 7 COLLEGE CLOSE, GRANBY ROW, CARLOW",,0,93052.0,0,0,1,,52.8305439,-6.9312808,62,"2, College Close, College Gardens, Carlow, Ireland",432,202007
2016-08-18,"CHAPEL ST, KILKEE, CLARE",,2,205000.0,0,0,1,,52.6828228,-9.6444116,57,"Dough, Kilkee, Co. Clare, Ireland",631,201608
2011-06-23,"413 Carnlough Road, Cabra",Dublin 7,5,85525.0,1,0,1,,53.3698008,-6.297153,64,"413 Carnlough Rd, Cabra West, Dublin 7, D07 KHX2, Ireland",2164,201106
2015-02-17,"5 AN CRANNOG, MONAGHAN",,17,170500.0,0,1,0,greater than or equal to 38 sq metres and less than 125 sq metres,54.2492434,-6.9683082,57,"Monaghan, Ireland",603,201502
2012-09-08,"Oakwood, Redcross, Co. Wicklow",,25,210000.0,0,0,1,,52.8992102,-6.173172699999999,59,"Oakwood, Kilmacrea, Co. Wicklow, Ireland",646,201209
2016-09-21,"26 TURVEY GROVE, DONABATE, DUBLIN",,5,150000.0,0,0,1,,53.4867398,-6.1545098,64,"26 Turvey Grove, Ballalease West, Donabate, Co. Dublin, K36 H678, Ireland",7309,201609
2012-06-22,"2 Luttrellstown Walk, Castleknock",,5,225000.0,0,0,1,,53.36882629999999,-6.3931508,64,"2 Luttrellstown Walk, Carpenterstown, Dublin, D15 E9KN, Ireland",4778,201206
2017-03-05,"15 MAPLE AVE, CASTLEKNOCK, DUBLIN 15",Dublin 15,5,475000.0,0,0,1,,53.3784234,-6.384156300000001,64,"15 Maple Ave, Carpenterstown, Dublin, D15 K4AC, Ireland",4851,201703
2014-03-21,"KNOCKAVADDY, FURBO, CO. GALWAY",,6,130000.0,0,0,1,,53.24918,-9.20495,57,"Stripe, Furbogh, Co. Galway, Ireland",547,201403
2019-06-08,"APT 57 THE CRESCENT, FORTFIELD SQUARE, TERENURE",,5,570000.0,0,0,1,,53.3043753,-6.3023652,63,"Fortfield Square, Terenure, Dublin, Ireland",6539,201906
2014-03-26,"BOHERBOY, PAULSTOWN, CO KILKENNY",,9,35000.0,0,0,1,,52.6813185,-7.021122099999999,57,"Ballytarsna, Paulstown, Co. Kilkenny, Ireland",801,201403
2017-07-27,"APT 20 LAR NA CATHRACH, ABBEY TRINITY, TUAM",,6,40000.0,0,0,1,,53.5152733,-8.854082499999999,62,"Lár Na Cathrach, 15 Abbey Trinity Rd, Corralea West, Tuam, Co. Galway, Ireland",5239,201707
2016-08-10,"8, shantobar, ballinalee",,13,44052.0,0,1,0,greater than or equal to 125 sq metres,53.7745413,-7.6561444,64,"8 Shantobar, Gorteenrevagh, Ballinalee, Co. Longford, N39 A022, Ireland",6410,201608
2018-01-02,"28 HANOVER DOCK, HANOVER QUAY, DUBLIN 2",Dublin 2,5,1500000.0,0,0,1,,53.3447538,-6.2380521,65,"Hanover Dock, Dublin Docklands, Dublin 2, Ireland",3151,201801
2021-02-07,"16 ST JOHNS TERRACE, ORMOND ST, NENAGH",,21,115000.0,0,0,1,,52.8698306,-8.1962075,62,"Saint John's Terrace, Ormond St, Nenagh North, Nenagh, Co. Tipperary, Ireland",4318,202102
2021-11-25,"45 Maple Hill, Castle Heights, Carrigaline",,3,262114.53,1,1,0,,51.804497,-8.3980554,56,"Maple Hill & Castle Heights, Kilmoney, Co. Cork, Ireland",4087,202111
2015-06-02,"7 THE SQUARE, SKERRIES, CO DUBLIN",,5,200000.0,0,0,1,,53.5800899,-6.1107404,64,"7 The Square, Townparks, Skerries, Co. Dublin, K34 DH56, Ireland",7181,201506
2020-03-06,"11 CHESTNUTWALK, KILMUCKRIDGE, GOREY",,24,162000.0,0,0,1,,52.5151362,-6.2825884,64,"11 Chestnut Walk, Cosher, Kilmuckridge, Co. Wexford, Y25 YR83, Ireland",2411,202003
2015-11-09,"7A Flaxmill Court, Flaxmill Lane, Drogheda",,16,58545.46,0,0,1,,53.7249626,-6.3428444,62,"Flaxmill Court, Flaxmill Ln, Yellowbatter, Drogheda, Co. Louth, Ireland",2891,201511
2015-02-17,"5 Prior Park Terrace, Clonmel",,21,105000.0,0,0,1,,52.3602723,-7.7026098,64,"5 Prior Park Dr, Burgagery-Lands West, Clonmel, Co. Tipperary, E91 E635, Ireland",5703,201502
2020-06-25,"11 Church Green, Ballinglanna, Glanmire",,3,334801.0,0,1,0,,51.9213593,-8.3828011,58,"Ballinglanna, Co. Cork, Ireland",400,202006
2018-07-25,"7 TEMPLE MANOR GROVE, GREENHILLS, DUBLIN 12",Dublin 12,5,421500.0,0,0,1,,53.3065677,-6.3329589,64,"7 Temple Manor Grove, Limekilnfarm, Dublin 12, D12 R891, Ireland",6881,201807
2014-12-17,"73 Preston Brook, Rathangan, Co Kildare",,8,120704.84,0,1,0,greater than or equal to 38 sq metres and less than 125 sq metres,53.21780529999999,-7.006483599999999,64,"73 Preston Brook, Mullantine, Rathangan, Co. Kildare, R51 VX95, Ireland",5697,201412
2014-07-23,"DUNWORLEY, TIMOLEAGUE",,3,215000.0,0,0,1,,51.6432296,-8.766188699999999,57,"Castle Lower, Timoleague, Co. Cork, Ireland",4751,201407
2017-08-05,"18 AVONDALE HALL, 151 PARNELL ST, DUBLIN 1",Dublin 1,5,150500.0,0,0,1,,53.3495933,-6.26903,65,"HALL, 151, The Life House, 1 Parnell St, North City, Dublin 1, D01 TF70, Ireland",45,201708
2021-09-13,"22 TULLYVARRAGA CRESENT, SHANNON, CLARE",,2,255000.0,0,0,1,,52.7079995,-8.869295,64,"Woodview, 22 Tullyvarraga Cres, Tullyvarraga, Shannon, Co. Clare, V14 FV04, Ireland",78,202109
2018-07-13,"LECARROW, KNOCKROE, CROGHAN BOYLE",,19,171000.0,0,0,1,,43.895902,-75.3924083,57,"Croghan, NY 13327, USA",771,201807
2014-12-15,"LAMBSTOWN, GLYNN, WEXFORD",,24,160000.0,0,0,1,,52.32847,-6.676979999999999,57,"Cloonerane, Lambstown, Co. Wexford, Ireland",690,201412
2020-12-14,"DROMCLOGH EAST, BANTRY, CORK",,3,285000.0,0,0,1,,51.7149197,-9.3599934,58,"Dromclogh East, Lisheens, Co. Cork, Ireland",3316,202012
2021-05-28,"54 CLONARD ST, BALBRIGGAN, DUBLIN",,5,215000.0,0,0,1,,53.6085307,-6.1866363,64,"Ballyheigue, 54 Clonard St, Balbriggan, Co. Dublin, K32 C677, Ireland",148,202105
2019-06-03,"CUILTYBOE, LOUGHLYNN, CASTLEREA",,19,68000.0,0,0,1,,53.7686571,-8.4924537,57,"Demesne, Castlerea, Co. Roscommon, Ireland",366,201906
2021-02-11,"4 EDEN PARK AVE, DUBLIN 14, DUBLIN",Dublin 14,5,640000.0,0,0,1,,53.287647,-6.227945000000001,64,"4 Eden Park Ave, Kilmacud, Dublin, D14 W5Y2, Ireland",3327,202102
2012-01-06,"7 Ard Glas, Ferbane",,18,132500.0,0,1,0,greater than or equal to 38 sq metres and less than 125 sq metres,53.2783351,-7.826088,64,"7 Ard Glas, Ballyvora, Ferbane, Co. Offaly, R42 K386, Ireland",1365,201201
2018-03-16,"APT 142, 109 PARNELL ST, DUBLIN 1",Dublin 1,5,185000.0,0,0,1,,53.35394969999999,-6.2575639,65,"142, 109 Parnell St, Rotunda, Dublin 1, Ireland",9,201803
2017-02-27,"25 CEDARWOOD DR CASTLEHEIGHTS, KILMONEY RD, CARRIGALINE",,3,211538.46,0,0,1,,51.8024839,-8.4038401,64,"25 Cedarwood Dr, Kilmoney, Carrigaline, Co. Cork, P43 K338, Ireland",2338,201702
2014-07-23,"16 KEEPER RD, DRIMNAGH, DUBLIN 12",Dublin 12,5,260000.0,0,0,1,,53.3320737,-6.304878200000001,64,"16 Keeper Rd, Drimnagh, Dublin, D12 E516, Ireland",4334,201407
2011-05-31,"10 Beechpark Wood, Leixip",,8,110132.0,0,1,0,greater than or equal to 38 sq metres and less than 125 sq metres,53.3646395,-6.5232701,44,"Beech Park Wood, Beech Park, Easton, Leixlip, Co. Kildare, Ireland",5559,201105
2013-06-28,"Tullaghboy, Connolly",,2,9190.0,0,0,1,,53.45359,-9.470469999999999,57,"Tullaghaboy, Tullaghboy, Co. Galway, Ireland",946,201306
2019-06-17,"14 CUIRT EANNA, LONG WALK, GALWAY",,6,300000.0,0,0,1,,53.2692766,-9.0522806,62,"Cúirt Éanna, The Long Walk, Galway, Ireland",7784,201906
2021-08-30,"16 CLUAIN FRAOIGH, LANESBOROUGH ROAD, ROSCOMMON",,19,166000.0,0,0,1,,53.6374418,-8.17623,64,"16 Cluain Fraoigh, Cloonybeirne, Roscommon, F42 XF64, Ireland",2601,202108
2016-06-07,"75 CLONLEA, MOUNT OVAL VILLAGE, ROCHESTOWN RD",,3,222500.0,0,0,1,,51.86803080000001,-8.4070392,64,"75 Clonlea, Mount Oval Village, Cork, T12 H42W, Ireland",2535,201606
2015-07-10,"4 LANGFIELD, DUBLIN ROAD, DUNDALK",,14,110000.0,0,0,1,,53.9864403,-6.3989332,64,"4 Langfield, Dublin Rd, Marshes Upper, Dundalk, Co. Louth, A91 XR0K, Ireland",4514,201507
2014-11-27,"KILFINANE RD, BALLYORGAN, LIMERICK",,12,160000.0,0,0,1,,52.3707356,-8.3533276,63,"Kilfinane Rd, Co. Limerick, Ireland",5896,201411
2017-07-11,"24 GLENCAIRN WALK, SANDYFORD, DUBLIN 18",Dublin 18,5,530000.0,0,0,1,,53.262547,-6.2092724,64,"24 Glencairn Walk, The Gallops, Dublin, D18 H5V9, Ireland",3736,201707
2021-10-03,"65 STEEPLECHASE COURT, RATOATH, MEATH",,16,210000.0,0,0,1,,53.51041679999999,-6.4739866,64,"65 Steeplechase Ct, Ratoath, Co. Meath, Ireland",6756,202110
2012-10-30,"7 Tir Eda, Tobarteascain, Ennis",,2,105000.0,0,0,1,,52.83702100000001,-8.9748269,64,"7 Tir Eda, Tobarteascáin, Clonroad More, Ennis, Co. Clare, V95 C8KP, Ireland",7248,201210
2016-03-31,"21 Mount Eagle Court, Leopardstown Heights, Dublin 18",Dublin 18,5,585000.0,0,0,1,,53.26539589999999,-6.2131,64,"21 Mount Eagle Ct, Leopardstown Heights, Sandyford, Dublin 18, D18 N4C1, Ireland",5152,201603
2016-01-20,"7 THE ELM COURTYARD, BELLVIEW WOODS, BALLYDOWNY",,7,165000.0,0,0,1,,52.0690248,-9.527885,64,"7 The Elm Courtyard, Ballydowny, Killarney, Co. Kerry, V93 C2W2, Ireland",7025,201601
2018-05-28,"COPPER BEECH COTTAGE, BALLINAHOUN, FERMOY",,3,80000.0,0,0,1,,52.1372719,-8.281225599999999,57,"Fermoy, Co. Cork, Ireland",400,201805
2017-11-16,"1 ASHE WAY, KNOCKSEDAN DEMENSE, SWORDS",,5,392070.48,0,1,0,greater than or equal to 38 sq metres and less than 125 sq metres,53.4557467,-6.219740600000001,57,"Swords, Co. Dublin, Ireland",403,201711
2018-11-13,"GORTGARRA, ARRANMORE ISLAND, CO DONEGAL",,4,77000.0,0,0,1,,54.9822281,-8.5052,58,"Gortgarra, Arranmore, Co. Donegal, Ireland",213,201811
2018-12-07,"2 SOUTHVILLE GARDENS, BALLINACURRA, LIMERICK",,12,240000.0,0,0,1,,52.6486694,-8.6382276,64,"Ardeen, 2 Southville Gardens, Ballinacurra, Limerick, V94 AYD5, Ireland",100,201812
2018-02-28,"1 LOWER PRINCE EDWARD TCE, BLACKROCK, DUBLIN",,5,1840000.0,0,0,1,,53.29658370000001,-6.1801825,62,"Prince Edward Terrace Lower, Carysfort Ave, Blackrock, Co. Dublin, Ireland",3347,201802
2019-01-23,"19 CARTRUN BREAC, LISBRACK, LONGFORD",,13,37250.0,0,0,1,,53.7374224,-7.8085049,64,"19 Cartrun Breac, Lisbrack, Longford, N39 TY47, Ireland",2204,201901
2014-08-12,"17 WOODLANDS VALE, ARKLOW, WICKLOW",,25,103500.0,0,0,1,,52.79571019999999,-6.1790443,64,"17 Woodlands Vale, Lamberton, Arklow, Co. Wicklow, Y14 CC92, Ireland",7717,201408
2011-02-16,"Churchtown, Newcastlewest",,12,137160.0,0,1,0,greater than or equal to 38 sq metres and less than 125 sq metres,52.4591192,-9.0725814,63,"Churchtown Rd, Co. Limerick, Ireland",5896,201102
2012-01-20,"12 Old Cross Square, Monaghan",,17,80000.0,0,0,1,,54.2463446,-6.9651089,64,"12 Old Cross Square, Tirkeenan, Monaghan, Co. Monaghan, H18 K603, Ireland",5420,201201
2018-08-14,"30 St. Helen's Drive, St. Helen's, Adamstown",,5,325991.18,0,1,0,greater than or equal to 38 sq metres and less than 125 sq metres,53.3412327,-6.466199599999999,64,"30 St Helen's Dr, Finnstown, Lucan, Co. Dublin, Ireland",6658,201808
2016-04-28,"49 Sion Hill Park, Drumcondra",,5,519823.0,0,1,0,greater than or equal to 38 sq metres and less than 125 sq metres,53.3767357,-6.2375702,64,"49 Sion Hill Park, Grace Park, Dublin, D09 H685, Ireland",6446,201604
2011-11-28,"52 Blackthorn Close, Portmarnock, County Dublin",,5,390000.0,0,0,1,,53.4347156,-6.1288947,64,"52 Blackthorn Cl, Carrickhill, Portmarnock, Co. Dublin, D13 Y968, Ireland",1858,201111
2012-12-20,"Derryvrin, Abbeydorney",,7,187000.0,0,0,1,,52.346618,-9.6879095,57,"Montanagay, Abbeydorney, Co. Kerry, Ireland",188,201212
2015-04-09,"No. 17 The Square, Aubrey Manor, Rathcoole",,5,383259.91,0,1,0,greater than 125 sq metres,53.2821341,-6.4701141,44,"Rathcoole, Co. Dublin, Ireland",403,201504
2015-07-01,"RATHBAWN LODGE, TULLOW, CARLOW",,0,305000.0,0,0,1,,52.8224782,-6.7674765,19,"Rathbawn, Tullow, Co. Carlow, R93 F786, Ireland",948,201507
2019-10-25,"LEA RD, PORTARLINGTON, LAOIS",,10,317500.0,0,0,1,,53.16121099999999,-7.187757399999999,57,"Portarlington, Co. Laois, Ireland",409,201910
2014-01-08,"12 HAZELBROOK COURT, TERENURE, DUBLIN 6W",,5,425000.0,0,0,1,,53.31221129999999,-6.291915599999999,65,"6w, 12 Hazelbrook Ct, Terenure, Dublin 6W, Co. Dublin, D6W DH76, Ireland",26,201401
2015-04-02,"CAMLA, KILLYCUSHILL, MONAGHAN",,17,90000.0,0,0,1,,54.2492434,-6.9683082,57,"Monaghan, Ireland",603,201504
2019-09-19,"92 COLLEGE AVE, MOUNTMELLICK, LAOIS",,10,139000.0,0,0,1,,53.12070749999999,-7.325250199999999,64,"92 College Ave, Townparks, Co. Laois, Ireland",2693,201909
2021-08-19,"8 CHERRY ORCHARD, BROOMFIELD VILLAGE, MIDLETON",,3,177000.0,0,0,1,,51.9143321,-8.1726276,57,"Midleton, Co. Cork, Ireland",400,202108
2016-08-01,"Apartment 10, Cumberland Row, North Cumberland Street",Dublin 1,5,230000.0,0,0,1,,53.3529992,-6.258271,62,"Cumberland Row, Britain Pl, Rotunda, Dublin 1, Ireland",6245,201608
2012-07-09,"17 The Square (Arcadia Court), Skerries",,5,215000.0,0,0,1,,53.5805585,-6.1115129,62,"Arcadia Court, The Square, Townparks, Skerries, Co. Dublin, Ireland",2922,201207
2014-10-10,"BALLINTIM, CAMOLIN, ENNISCORTHY",,24,340000.0,0,0,1,,52.5031135,-6.5727721,57,"Enniscorthy, Co. Wexford, Ireland",423,201410
2017-12-10,"ROSS, KILBAHA, CO CLARE",,2,60000.0,0,0,1,,52.5705484,-9.8616683,57,"Kiltrellig, Kilbaha, Co. Clare, Ireland",616,201712
2019-10-29,"3 CUCHULAINN HEIGHTS, CARLINGFORD, CO LOUTH",,14,330000.0,0,0,1,,54.0358224,-6.183262399999999,64,"3 Cuchulaínn Heights, Liberties of Carlingford, Carlingford, Co. Louth, A91 K535, Ireland",3024,201910
2011-02-12,"22 Ben Eadair Road, Stoneybatter",Dublin 7,5,70000.0,0,0,1,,53.3534932,-6.289681499999999,64,"22 Ben Edair Rd, Arbour Hill, Stoneybatter, Dublin 7, D07 Y153, Ireland",1795,201102
2019-07-15,"41 AYRFIELD DRIVE, AYRFIELD, DUBLIN 13",Dublin 13,5,260000.0,1,0,1,,53.3946883,-6.188066999999999,64,"13 Ayrfield Dr, Ayrfield, Dublin, D13 E8E2, Ireland",1527,201907
2021-09-16,"BALLYFERNOGUE, CAMPILE, WEXFORD",,24,315000.0,0,0,1,,52.2876617,-6.941280799999999,57,"Ballykeeroge, Campile, Co. Wexford, Ireland",334,202109
2010-06-01,"Scrine, Athleauge, Co. Roscommon",,19,195000.0,0,1,0,greater than 125 sq metres,53.5580131,-8.1715684,58,"Skrine, Mote, Co. Roscommon, Ireland",755,201006
2014-08-10,"69 ANNAMOE RD, CABRA, DUBLIN 7",Dublin 7,5,385000.0,0,0,1,,53.3599604,-6.2887169,64,"69 Annamoe Rd, Cabra East, Dublin 7, D07 EY06, Ireland",1322,201408
2018-03-20,"5 THE CRESCENT, PARK WEST POINTE, YEATS WAY DUBLIN 22",Dublin 12,5,190000.0,0,0,1,,53.33296989999999,-6.3779452,62,"Park West Pointe, 12 Yeats Way, Park West Business Park, Dublin 12, D12 DA30, Ireland",7532,201803
2016-12-20,"9 FAIRVIEW, BIRR, OFFALY",,18,115000.0,1,0,1,,53.09982420000001,-7.912063400000001,64,"9 Fairview, Townparks, Birr, Co. Offaly, R42 K229, Ireland",3459,201612
2017-03-23,"42A DRUMMARTIN PARK, GOATSTOWN, DUBLIN 14",,5,10000.0,0,0,1,,53.2871664,-6.224382899999999,65,"42a, 14 Drummartin Park, Kilmacud West, Dublin 14, D14 W925, Ireland",40,201703
2016-04-26,"59 MAIGH RIOCAIRD, CASTLEGAR VILLAGE, HEADFORD RD",,6,166000.0,0,0,1,,53.29779569999999,-9.024450000000002,64,"59 Maigh Riocaird, Castlegar Village, Co. Galway, H91 XP4V, Ireland",4796,201604
2017-05-10,"43 LORETTO PK, FRIARS WALK, CORK",,3,211000.0,0,0,1,,51.8845974,-8.478180199999999,64,"43 Loretto Park, Ballyphehane, Cork, T12 P8C7, Ireland",4738,201705
2013-11-07,"Clash Road, Abbeyfeale",,12,20000.0,0,0,1,,52.37822,-9.3009,57,"Abbeyfeale West, Clash Road, Co. Limerick, Ireland",7516,201311
2021-10-02,"2 ST MARYS TERRACE, ST MARYS RD, KILLARNEY",,7,105000.0,0,0,1,,52.0613724,-9.5141028,37,"33 St Mary's Rd, Killarney, Co. Kerry, V93 YCH0 St Mary's Rd, Killarney, Co. Kerry, V93 YCH0, Ireland",6706,202110
2019-11-29,"19 TEMPLEROAN GREEN, RATHFARNHAM, DUBLIN 14",Dublin 16,5,395000.0,0,0,1,,53.2811558,-6.308955099999999,64,"14 Templeroan Green, Rathfarnham, Dublin, D16 Y9P5, Ireland",6892,201911
2021-01-19,"59 KINGSWOOD, BLACKROCK RD, DUNDALK",,14,255000.0,0,0,1,,53.9897523,-6.371526299999999,64,"59 Kingswood, Blackrock Rd, Marsh South, Dundalk, Co. Louth, A91 Y293, Ireland",4430,202101
2021-03-31,"ST. JOSEPHS, RAILWAY VIEW, ATHLONE",,23,301000.0,0,0,1,,53.42535,-7.93884,63,"Railway View, Athlone, Co. Westmeath, Ireland",7379,202103
2018-08-28,"42 WEAVERS HALL, LEVMOSS PARK, THE GALLOPS DUBLIN 18",Dublin 18,5,325000.0,0,0,1,,53.2639518,-6.1984184,44,"Weavers Hall, Levmoss Ave, Orby Park, The Gallops, Sandyford, Dublin 18, Ireland",3938,201808
2016-08-12,"13 HAZELVILLE, ONSLOW GARDENS COMMONS RD, CORK",,3,200000.0,0,0,1,,51.9182201,-8.4873998,64,"13 Hazelville, Commons Road, Onslow Gardens, Cork, T23 N2K2, Ireland",4013,201608
2010-01-28,"15 Lanesborough Mews, St. Margarets  Finglas, Dublin 11",,5,185000.0,0,0,1,,53.4026393,-6.2939188,62,"Lanesborough Mews, Finglas, Dublin 11, Ireland",5013,201001
2017-07-12,"9 RAMLEH HALL, CONVENT AVE, MOUNT ST ANNES DUBLIN 6",Dublin 6,5,480000.0,0,0,1,,53.31276159999999,-6.249418899999999,62,"Apartment 5, Ramleh Hall, Convent Ave, Mount St Annes, Dublin 6, Ireland",1120,201707
2019-06-25,"26 LOWER BELADD, STRADBALLY RD, PORTLAOISE",,10,190000.0,0,0,1,,53.0326523,-7.275291,64,"26 Beladd Lower, Beladd, Portlaoise, Co. Laois, R32 E8NX, Ireland",1737,201906
2013-10-10,"8 The Quays, Harbour Point, Longford",,13,24000.0,0,0,1,,53.724596,-7.800740899999999,62,"Apartment 60, Harbour Point, Market Square, Townparks, Longford, Ireland",1140,201310
2015-05-11,"8 BEECH GROVE, JOHNSTOWN WOOD, NAVAN",,16,177500.0,0,0,1,,53.6423727,-6.653986199999999,64,"8 Beechgrove, Johnstown, Johnstown Wood, Co. Meath, C15 CD7T, Ireland",1702,201505
2018-03-29,"15 THE MAPLES, BIRD AVENUE, CLONSKEAGH",Dublin 14,5,656000.0,0,0,1,,53.3060128,-6.241396399999999,64,"15 The Maples, Farranboley, Clonskeagh, Co. Dublin, Ireland",7107,201803
2021-10-20,"35 SWANS NEST AVENUE, KILBARRACK, DUBLIN 5",Dublin 5,5,156000.0,1,0,1,,53.3891377,-6.161672299999999,64,"35 Swans Nest Ave, Donaghmede, Dublin 5, D05 E725, Ireland",6832,202110
2013-08-28,"Apt. 6  Mountgarrett Lane, Irishtown, New Ross",,24,30000.0,0,0,1,,52.3986518,-6.939086,64,"6 Mountgarrett Ln, Bowling Green, New Ross, Co. Wexford, Ireland",5176,201308
2011-06-01,"13 Riversdale Court, Monkstown",,5,200000.0,0,0,1,,53.2929877,-6.1625882,62,"Riverdale Court, Queen's Park, Montpelier, Monkstown, Co. Dublin, Ireland",2914,201106
2019-09-04,"8 Park Crescent, Hansfield Wood, Hansfield",Dublin 15,5,339207.0,0,1,0,,53.38789000000001,-6.4357411,64,"8 Park Cres, Hansfield, Dublin, D15 DH9X, Ireland",5533,201909
2014-04-04,"27 An Crannog, Kingscourt Road, Carrickmacross",,17,28333.0,0,1,0,greater than or equal to 38 sq metres and less than 125 sq metres,53.9726409,-6.7274514,63,"Kingscourt Rd, Co. Monaghan, Ireland",5900,201404
2015-07-31,"151 Killester Avenue, Killester",Dublin 5,5,150000.0,0,0,1,,53.3756409,-6.2092334,64,"151 Killester Ave, Clontarf West, Dublin 5, D05 F449, Ireland",4391,201507
2017-10-05,"20 WOOD GREEN, FOREST PARK, DROMAHAIR",,11,135000.0,0,0,1,,54.2311196,-8.2920804,64,"20 Wood Green, Forest Park, Dromahair, Co. Leitrim, F91 V3H4, Ireland",7672,201710
2017-09-22,"16 Corrybeg Way, Templeogue, Dublin 6W",Dublin 6w,5,722467.0,0,1,0,greater than or equal to 125 sq metres,53.2945447,-6.3108662,65,"6w, 16 Corrybeg, Templeogue Village, Dublin 6W, Co. Dublin, D6W AH01, Ireland",55,201709
2016-10-13,"2B BELMONT, ST CONLANS RD, NENAGH",,21,137500.0,0,0,1,,52.8674032,-8.2096917,63,"St Conlan's Rd, Nenagh, Co. Tipperary, Ireland",2762,201610
2011-01-09,"15 The Close, Fox Lodge wood, Ballybib  Rathoath",,16,370000.0,0,0,1,,53.51255270000001,-6.4338112,58,"Ballybin, Co. Meath, Ireland",415,201101
2019-02-09,"29 OROURKE PARK, SALLYNOGGIN, DUBLIN",,5,420000.0,0,0,1,,53.2782979,-6.142282600000001,64,"29 O'Rourke Park, Honeypark, Sallynoggin, Co. Dublin, A96 X2C8, Ireland",5348,201902
2014-10-20,"62 GLENMORE WOOD, MULLINGAR, WESTMEATH",,23,127500.0,0,0,1,,53.5227637,-7.3252995,64,"62 Glenmore Wood, Dublin Rd, Bellview, Mullingar, Co. Westmeath, N91 T6YV, Ireland",3754,201410
2015-08-09,"36 PADDOCKS VIEW, LUCAN, ADAMSTOWN",,5,268000.0,0,0,1,,53.3490527,-6.4624352,64,"36 The Paddocks View, Adamstown, Lucan, Co. Dublin, K78 VX61, Ireland",7153,201508
2020-09-21,"STATION RD, DULEEK, MEATH",,16,295000.0,0,0,1,,53.6667311,-6.418342,63,"Station Rd, Co. Meath, Ireland",5899,202009
2017-12-19,"5A THORMOND VILLAGE, BALLYGRENNAN, CO LIMERICK",,12,35000.0,0,0,1,,52.6819535,-8.660079099999999,64,"5A Thomond Village, Baile Uí Dhroighneáin, Luimneach, V94 ER83, Ireland",7218,201712
2020-03-13,"APT 9 THE ELMS, PELLETSTOWN MANOR, ASHTOWN DUBLIN 15",Dublin 15,5,251000.0,0,0,1,,53.37708929999999,-6.3227312,62,"Apartment 26, The Elms, River Rd, Pelletstown Manor, Royal Canal Park, Ashtown, Dublin 15, Ireland",1065,202003
2021-06-17,"4 THE WELL, BALLINLOUGH RD, CORK",,3,215000.0,0,0,1,,51.8882931,-8.4400982,62,"6, The Well, Ballinlough Rd, Ballinlough, Cork, Ireland",929,202106
2019-08-11,"61 Stoneleigh, Craddockstown, Naas",,8,250000.0,1,1,0,,53.2056856,-6.6511049,63,"Craddockstown Rd, Naas, Co. Kildare, Ireland",5973,201908
2014-07-02,"57 SEABOURNE VIEW, GREYSTONES, WICKLOW",,25,100000.0,0,0,1,,53.12917770000001,-6.0613623,64,"57 Seabourne View, Ballynerrin, Co. Wicklow, Ireland",6333,201407
2019-07-31,"TURIN, MOUNTNUGENT, CO. CAVAN",,1,245000.0,0,0,1,,53.8179409,-7.2563058,57,"Mountnugent, Mount Nugent, Co. Cavan, Ireland",760,201907
2021-04-26,"31 Oakfield, Park Road, Killarney",,7,275000.0,0,1,0,,52.0591298,-9.4863058,64,"31 Oakfield, Ballycasheen, Killarney, Co. Kerry, Ireland",5372,202104
2016-10-06,"No.46 Ballygossan Park, Golf Links Road, Skerries",,5,251100.0,0,1,0,greater than or equal to 38 sq metres and less than 125 sq metres,53.5696159,-6.1112581,64,"46 Ballygossan Park, Hacketstown, Co. Dublin, Ireland",1562,201610
2021-06-29,"1 HIGH ST, ARDCLONE, PILTOWN",,9,141000.0,0,0,1,,52.3402334,-7.3303325,58,"Ardclone, Woodview, Co. Kilkenny, Ireland",977,202106
2017-03-28,"ST MARTINS, CAHERLEAHEEN, TRALEE",,7,160000.0,0,0,1,,52.242819,-9.675586,45,"Caherleaheen, Caherleheen, Tralee, Co. Kerry, Ireland",330,201703
2021-10-14,"SUCKFIELD, SHANNONBRIDGE RD, BALLINASLOE",,19,146000.0,0,0,1,,53.3256401,-8.1998496,63,"Shannonbridge Rd, Ballinasloe, Co. Galway, Ireland",5851,202110
2011-04-13,"No. 5 St. James Court, Cabra, Kingscourt",,1,255506.6,0,1,0,greater than 125 sq metres,41.8858604,-87.64907070000001,11,"200 N Green St, Chicago, IL 60607, USA",5234,201104
2015-06-26,"18 IVY COURT, BROOMFIELD VILLAGE, BROOMFIELD",,3,115000.0,0,0,1,,39.9205411,-105.0866504,57,"Broomfield, CO, USA",326,201506
2017-11-12,"32  The Gallops, Kinnegad Road",,16,229075.0,0,1,0,greater than or equal to 38 sq metres and less than 125 sq metres,53.55233699999999,-6.801448799999999,64,"32 The Gallops, Trim, Co. Meath, Ireland",7046,201711
2015-01-23,"51 Juliet Square, St Edmunds, Palmerstown",Dublin 20,5,146550.0,0,0,1,,53.35422399999999,-6.407882499999999,62,"Apartment 36, Juliet Square, St Edmunds Park, Yellow Walls, Lucan, Co. Dublin, Ireland",1095,201501
2014-12-09,"4 Alaan Park, Stranorlar",,4,180000.0,0,1,0,greater than 125 sq metres,54.8111835,-7.7648629,64,"4 Allan Park, Admiran, Stranorlar, Co. Donegal, F93 DCA2, Ireland",1261,201412
2021-04-15,"APT 1 - 67, THE CARLTON, HENRY ST",,12,11250000.0,0,0,1,,52.822473642491516,-7.744852870130693,0,,0,202104
2021-04-05,"26 Oldtown Woods, Celbridge",,8,348017.62,0,1,0,,53.3401866,-6.5568122,63,"Oldtown Wds, Co. Kildare, Ireland",7491,202104
2021-02-18,"CARNSHANNAGH, RAPHOE, CO DONEGAL",,4,55000.0,0,0,1,,54.8896913,-7.556161800000001,58,"Carnshannagh, Co. Donegal, Ireland",402,202102
2010-12-21,"Grattan Street, Ballymote",,20,98000.0,0,0,1,,54.08982880000001,-8.5171827,57,"Ballymote, Co. Sligo, Ireland",419,201012
2015-09-25,"67 BEECHMOUNT, GREEN RD, NEWBRIDGE",,8,252000.0,0,0,1,,53.168359,-6.8078847,64,"67 Beechmount Ct, Moorfield, Newbridge, Co. Kildare, Ireland",1705,201509
2015-11-26,"35 KILMAINHAMWOOD RETIREMENT VILLAG, KILMAINHAMWOOD, KELLS",,16,55000.0,0,0,1,,53.8438112,-6.8036058,64,"35 Kilmainhamwood Retirement Village, Eden, Kilmainhamwood, Co. Meath, A82 PW53, Ireland",4400,201511
2012-11-12,"Altmor, Brighton Road, Foxrock",,5,1700000.0,0,0,1,,53.2597236,-6.1768085,62,"Altmor, Brighton Rd, Kerrymount, Dublin 18, Ireland",313,201211
2015-12-14,"286 Clontarf Road, Clontarf",Dublin 3,5,825000.0,0,0,1,,53.359942,-6.1857991,64,"286 Clontarf Rd, Clontarf, Dublin 3, D03 H2K6, Ireland",2556,201512
2015-09-07,"CARROWHUBBOCK SOUTH, INNISCRONE, SLIGO",,20,105000.0,0,0,1,,54.2208719,-9.0964961,58,"Carrowhubbuck South, Enniscrone, Co. Sligo, Ireland",6491,201509
2016-01-22,"21 BALLYTORE RD, RATHFARNHAM, DUBLIN 14",Dublin 14,5,660000.0,0,0,1,,53.3029802,-6.2796841,64,"21 Ballytore Rd, Rathfarnham, Dublin, D14 RW18, Ireland",1579,201601
2020-07-15,"45 Rose Drive, Rath Ullord, Bonnettsrath Road",,9,330400.0,0,1,0,,52.67097,-7.23557,57,"Neworchard, Rath Úllord, Co. Kilkenny, Ireland",822,202007
2018-08-30,"2 Aston Village, Drogheda",,14,223671.88,0,1,0,greater than or equal to 38 sq metres and less than 125 sq metres,53.7293555,-6.3313426,58,"Aston Village, Drogheda, Co. Louth, Ireland",7420,201808
2017-02-28,"AUBURN HOUSE, 266 HAROLDS CROSS RD, DUBLIN 6",,5,370000.0,0,0,1,,53.3291013,-6.2761907,65,"HOUSE, 266, 6 Harold's Cross Rd, Harold's Cross, Dublin, Ireland",86,201702
2018-08-13,"181 CLONROOSKE ABBEY, PORTLAOISE, CO LAOIS",,10,190000.0,0,0,1,,53.04615339999999,-7.3203724,64,"181 Clonroosk Abbey, Maryborough, Portlaoise, Co. Laois, R32 CFW3, Ireland",2548,201808
2018-09-25,"5 CUIRT NA HABHAINN, LAKEVIEW, CLAREGALWAY",,6,232155.34,0,0,1,,53.337805,-8.943574,64,"5 Cúirt Na hAbhann, Lakeview, Claregalway, Co. Galway, H91 C2X8, Ireland",3057,201809
2021-09-24,"6 COIS NA HABHANN, BELCARRA, CASTLEBAR",,15,155000.0,0,0,1,,53.8550014,-9.287925699999999,57,"Castlebar, Co. Mayo, Ireland",414,202109
2015-01-12,"75 CARTUR MOR, CLYBAUN RD, GALWAY",,6,205000.0,0,0,1,,53.2733767,-9.1033241,64,"75 Clybaun Rd, Cartúr Mór, Knocknacarra, Galway, H91 FY5N, Ireland",2630,201501
2017-10-08,"15 BROCKRA WALK, BELLINGHAM, MOUNTRATH ROAD PORTLAOISE",,10,162995.0,0,1,0,greater than or equal to 38 sq metres and less than 125 sq metres,53.0309159,-7.3267427,64,"15 Brockra Walk, Clonroosk Little, Co. Laois, Ireland",2009,201710
2019-12-09,"THE HAW, LIFFORD, DONEGAL",,4,150000.0,0,0,1,,54.8200763,-7.5145871,63,"The Haw Ln, Co. Donegal, Ireland",3988,201912
2014-12-23,"4 THE TURNPIKE, SANTRY CROSS, BALLYMUN",Dublin 11,5,65000.0,0,0,1,,53.400369,-6.2650735,62,"Santry Cross, Ballymun, Dublin 11, Ireland",2988,201412
2018-06-21,"6 PRIORY ST, NEW ROSS, WEXFORD",,24,42000.0,0,0,1,,52.39166489999999,-6.9468342,64,"6 Priory St, Southknock, New Ross, Co. Wexford, Y34 X895, Ireland",5711,201806
2018-12-21,"16 BANK ST, TEMPLEMORE, CO TIPPERARY",,21,129500.0,0,0,1,,52.794802,-7.839860900000001,57,"Belleville, Templemore, Co. Tipperary, Ireland",902,201812
2015-06-17,"44 KINDLESTOWN PARK, GREYSTONES, WICKLOW",,25,215000.0,0,0,1,,53.14243039999999,-6.0797256,64,"44 Kindlestown Park, Kindlestown Lower, Greystones, Co. Wicklow, A63 XK40, Ireland",4429,201506
2020-09-12,"6 CONGRESS AVENUE, DROGHEDA, CO LOUTH",,14,90000.0,0,0,1,,53.7087511,-6.3527562,64,"6 Congress Ave, Lagavooren, Drogheda, Co. Louth, A92 NHT0, Ireland",2757,202009
2016-12-16,"44 Chestnut Drive, Fruithill Manor, Graiguecullen",,10,154185.02,0,1,0,greater than or equal to 38 sq metres and less than 125 sq metres,52.8381857,-6.9537624,63,"Fruithill Manor, Graigue, Co. Laois, Ireland",4817,201612
2019-10-25,"11 Longstone, Blessington Road, Craddockstown",,8,343612.33,0,1,0,,53.209318,-6.6416341,44,"Blessington Rd, Tipper South, Naas, Co. Kildare, Ireland",6001,201910
2018-09-26,"7 CASTLEKNOCK CROSS, CASTLEKNOCK",,5,722466.96,0,1,0,greater than or equal to 38 sq metres and less than 125 sq metres,53.380256,-6.3614335,64,"7 Castleknock Cross, Castleknock, Dublin 15, Ireland",2288,201809
2017-08-05,"NO.1 SHORE ROAD, BALLYLIFFIN, CO DONEGAL",,4,65000.0,0,0,1,,55.280795,-7.392553899999999,64,"1 Shore Rd, Ballyliffin, Co. Donegal, Ireland",6421,201708
2018-05-25,"APT 2 MAIN ST, RUSH, DUBLIN",,5,179500.0,0,0,1,,53.5256684,-6.0911586,57,"Rush, Co. Dublin, Ireland",403,201805
2018-11-12,"MOUNT MUNGRET, MUNGRET, COUNTY LIMERICK",,12,675000.0,0,0,1,,52.63195,-8.6854,57,"Dromdarrig, Mount Mungret, Co. Limerick, Ireland",759,201811
2014-12-24,"BALLYGOBBAN, KNOCKANANNA, WICKLOW",,25,45000.0,0,0,1,,52.90332,-6.4345814,58,"Ballygobban, Co. Wicklow, Ireland",425,201412
2017-05-12,"CURRAGHALANE, LIFFORD, DONEGAL",,4,55500.0,0,0,1,,54.8239402,-7.503644299999999,58,"Curraghalane, Co. Donegal, Ireland",402,201705
2018-04-17,"Apartment 34  Leona Block, Honeypark, Honeypark",,5,295154.19,0,1,0,greater than or equal to 38 sq metres and less than 125 sq metres,53.280867,-6.1455281,58,"Honeypark, Dublin, Ireland",512,201804
2012-10-25,"9 barrington court, prosperous",,8,155000.0,0,0,1,,53.28696979999999,-6.757115499999999,64,"9 Barrington Ct, Curryhills, Prosperous, Co. Kildare, W91 TXP5, Ireland",1617,201210
2019-05-04,"GLEN MERVYN HOUSE, GLANMIRE, CORK",,3,626500.0,0,0,1,,51.9180457,-8.4028605,59,"Glen Mervyn, Coláiste An Phiarsaigh, Co. Cork, Ireland",5006,201905
2012-04-04,"Ballincarriga, Dunmanway",,3,146500.0,0,0,1,,51.7043482,-9.0305213,58,"Ballynacarriga, Carrigmore, Co. Cork, Ireland",352,201204
2020-11-11,"93 COLLEGE HILL, MULLINGAR, WESTMEATH",,23,225000.0,0,0,1,,53.5399646,-7.3589951,64,"93 College Hill, Ballyglass, Mullingar, Co. Westmeath, N91 W9E4, Ireland",2705,202011
2016-11-25,"148 WATERVILLE TERRACE, LAKEHURST, BLANCHARDSTOWN DUBLIN 15",Dublin 15,5,230000.0,0,0,1,,53.3926674,-6.3703034,64,"148 Waterville Terrace, Deanestown, Dublin, Ireland",7479,201611
2019-11-04,"24 CLUAINN AOIBHINN, SWELLAN, CAVAN",,1,140056.49,0,0,1,,53.98929330000001,-7.377589700000001,64,"24 Cluain Aoibhinn, Swellan Lower, Cavan, Co. Cavan, H12 PF21, Ireland",2578,201911
2010-09-12,"19 The Green, Kensington Lodge, Rochestown Avenue",,5,310000.0,0,1,0,greater than or equal to 38 sq metres and less than 125 sq metres,53.2780899,-6.1535517,62,"Kensington Lodge, Rochestown Ave, Dún Laoghaire, Dublin, Ireland",4705,201009
2016-02-29,"APT 28, RUSSELL COURT, FELTRIM RD",,5,118487.0,0,0,1,,53.4436619,-6.1960416,62,"Russell Court, Feltrim Rd, Drinan, Swords, Co. Dublin, Ireland",2890,201602
2011-05-26,"Coole West, Athea",,12,50000.0,0,0,1,,51.9662966,-8.4671623,58,"Coole West, Co. Cork, Ireland",7517,201105
2018-06-20,"no 6 Freke Mews, Baltimore",,3,196000.0,1,1,0,greater than or equal to 38 sq metres and less than 125 sq metres,51.4800368,-9.374109299999999,64,"6 Freke Terrace, Baltimore, Co. Cork, P81 F850, Ireland",3590,201806
2017-09-29,"18 The Way, The Paddocks, Hansfield",,5,264273.0,0,1,0,greater than or equal to 38 sq metres and less than 125 sq metres,53.3961029,-6.4391348,63,"The Paddocks, Hansfield, Dublin, Ireland",5477,201709
2010-05-02,"10 the paddock, moyglare abbey, maynooth",,8,312000.0,0,0,1,,53.3898401,-6.6017645,63,"Moyglare Abbey, Mariavilla, Maynooth, Co. Kildare, Ireland",1181,201005
2019-07-17,"14 BAILE AN, KILLORGLIN, TOOREEN",,7,185000.0,0,0,1,,52.1011635,-9.7715423,64,"14, Dunmaniheen, Killorglin, Co. Kerry, V93 WN83, Ireland",526,201907
2018-10-24,"82G, BELLEVUE, ISLANDBRIDGE DUBLIN 8",Dublin 8,5,245000.0,1,0,1,,53.3468527,-6.3108311,44,"Bellevue, Island Bridge, Kilmainham, Dublin 8, Co. Dublin, Ireland",605,201810
2017-01-31,"76 BLOCK A, SMITHFIELD MARKET DUBLIN 7, DUBLIN",Dublin 7,5,403000.0,0,0,1,,53.34885269999999,-6.279043499999999,65,"Smithfield Market, Smithfield, Dublin 7, Ireland",4896,201701
2018-07-12,"2 ARDROM, VICTORIA RD, DALKEY",,5,1600000.0,0,0,1,,53.2760489,-6.0972503,62,"Ardrom, Victoria Rd, Dalkey, Co. Dublin, Ireland",962,201807
2016-05-02,"50 PRIMROSE GARDENS, CLARECASTLE, CLARE",,2,174000.0,0,0,1,,52.8125454,-8.968738799999999,64,"50 Primrose Gardens, Clarehill, Ennis, Co. Clare, V95 CDX4, Ireland",5700,201605
2013-12-17,"18 UPPER RATHMINES RD, DUBLIN 6, DUBLIN",,5,192500.0,0,0,1,,53.3210237,-6.265377399999999,64,"18 Rathmines Rd Upper, Rathmines, Dublin 6, D06 WR28, Ireland",5826,201312
2014-01-31,"172 The Richmond, North Brunswick Street, Dublin 7",,5,122000.0,0,0,1,,53.3511412,-6.2777243,65,"The Richmond, The Richmond Apartment, Brunswick St N, Smithfield, Dublin 7, Ireland",6051,201401
2016-11-11,"16  Maoilin, Ballymoneen Road",,6,255682.5,0,1,0,greater than or equal to 38 sq metres and less than 125 sq metres,53.2713986,-9.122373099999999,64,"16 Maoilín, Gaillimh, Ireland",4850,201611
2017-12-19,"15 ROCKWELL COVE, IDRONE TERRACE, BLACKROCK",,5,640000.0,0,0,1,,53.3010744,-6.1742197,62,"Apartment 14, Rockwell Cove, Idrone Terrace, Blackrock, Co. Dublin, Ireland",1019,201712
2017-07-09,"29 RIVERBANK HALL, ADDISON AVE, ADDISON PARK DUBLIN 9",Dublin 11,5,220000.0,0,0,1,,53.3768281,-6.276674100000001,62,"Apartment 63, Riverbank Hall, Addison Ave, Addison Park, Dublin 11, Ireland",1141,201707
2017-01-16,"8 SOMERVILLE GREEN, CRUMLIN, DUBLIN 12",Dublin 12,5,275000.0,0,0,1,,53.32102399999999,-6.320003700000001,64,"8 Somerville Green, Walkinstown, Dublin, D12 T2Y3, Ireland",6480,201701
2010-04-29,"16 Marlfield Grove, Tallaght",,5,162000.0,0,0,1,,53.27160019999999,-6.368956499999999,64,"16 Marlfield Grove, Oldbawn, Dublin 24, D24 A6X7, Ireland",4904,201004
2015-06-15,"Apt 316 Block 8A, Tallaght Cross West, Dublin 24",Dublin 24,5,120145.15,0,1,0,greater than or equal to 38 sq metres and less than 125 sq metres,53.2849263,-6.3713058,61,"Oldbawn, Dublin 24, Ireland",514,201506
2016-01-03,"Apt 12 Adelaide House, 7/8 Haddington Terrace, Dun Laoghaire",,5,200000.0,0,0,1,,53.2923206,-6.1308988,65,"Apartment 7, Adelaide House, 7/8 Haddington Terrace, Dún Laoghaire, Dublin, Co. Dublin, A96 R237, Ireland",1146,201601
2020-09-12,"104 THE WOOD CLON BRUGH, AIKENS VILAGE, SANDYFORD DUBLIN 18",Dublin 18,5,350000.0,0,0,1,,53.2643458,-6.227437999999999,64,"18 Clon Brugh, Woodside, Dublin, Ireland",2519,202009
2015-06-11,"MARLINSTOWN, MULLINGAR, WESTMEATH",,23,162000.0,0,0,1,,53.5157702,-7.3046793,58,"Marlinstown, Co. Westmeath, Ireland",422,201506
2015-01-21,"12 PALMERS GLADE, PALMERSTOWN MANOR, PALMERSTOWN DUBLIN 20",Dublin 20,5,271000.0,0,0,1,,53.3486809,-6.383447899999999,64,"12 Palmers Glade, Palmerstown Manor, Dublin, D20 YW31, Ireland",5488,201501
2013-07-18,"98 Colthurst Crescent, Lucan",,5,220000.0,0,0,1,,53.3483203,-6.416620399999999,64,"98 Colthurst Cres, Ballyowen, Lucan, Co. Dublin, K78 Y9H6, Ireland",2740,201307
2017-03-16,"50 DUFFERIN AVE, SOUTH CIRCULAR RD, DUBLIN 8",Dublin 8,5,750000.0,0,0,1,,53.33158779999999,-6.2813835,64,"50 Dufferin Ave, Saint Catherine's, Dublin, Ireland",3237,201703
2017-08-28,"BUNROWER, AYLE, WESTPORT",,15,155000.0,0,0,1,,52.822473642491516,-7.744852870130693,0,,0,201708
2018-03-22,"APARTMENT, MAIN STREET, ARVA",,1,55000.0,0,0,1,,52.822473642491516,-7.744852870130693,0,,0,201803
2014-09-22,"123 ADELAIDE SQ, WHITEFRIAR ST, DUBLIN 8",Dublin 8,5,350000.0,0,0,1,,53.3401177,-6.2676415,63,"Whitefriar St, Dublin, Ireland",6560,201409
2019-06-20,"16 ST MICHAELS TERRACE, CLOGHERHEAD, LOUTH",,14,100000.0,0,0,1,,53.7949784,-6.248418399999999,64,"16 St Michael's Terrace, Callystown, Clogherhead, Co. Louth, A92 ND98, Ireland",6713,201906
2017-03-31,"APT 11, FITZWILLIAM COURT, DYER ST",,14,100000.0,0,0,1,,53.7137368,-6.351434,63,"Dyer St, Downtown Drogheda, Drogheda, Co. Louth, Ireland",6559,201703
2019-06-21,"152 CAISLEAN NA, HABHAINN CASTLETROY, LIMERICK",,12,272500.0,0,0,1,,52.6576968,-8.571061499999999,64,"152 Caisleán Na hAbhann, Kilbane, Castletroy, Co. Limerick, V94 P30H, Ireland",2107,201906
2015-06-15,"Apt 343 Block 8B, Tallaght Cross West, Dublin 24",Dublin 24,5,95278.47,0,1,0,greater than or equal to 38 sq metres and less than 125 sq metres,53.2849263,-6.3713058,61,"Oldbawn, Dublin 24, Ireland",514,201506
2010-12-10,"69 Elm Mount Avenue, Beaumont, Dublin 9",,5,267000.0,0,0,1,,53.3814162,-6.2282456,64,"69 Elm Mount Ave, Beaumont, Dublin 9, D09 PX34, Ireland",3369,201012
2014-07-22,"114 College Manor, Hoey's Lane, Dundalk",,14,62400.0,0,0,1,,53.9859258,-6.3882564,64,"114 College Manor, Marshes Upper, Dundalk, Co. Louth, Ireland",2708,201407
2014-03-26,"24 HAZELWOOD, LOUGHREA, GALWAY",,6,133000.0,0,0,1,,53.2042638,-8.575359299999999,64,"24 Hazelwood, Monearmore, Loughrea, Co. Galway, H62 AW61, Ireland",4017,201403
2017-01-19,"1 THE GREEN, HAZELBROOK SQUARE, WHITEHALL ROAD",Dublin 14,5,563877.0,0,1,0,greater than or equal to 125 sq metres,53.29382099999999,-6.2681887,56,"Whitehall Road & Hazelbrook Square, Whitehall, Dublin, Ireland",6135,201701
2018-05-22,"11 EMMET TERRACE, TULLAMORE, OFFALY",,18,182500.0,0,0,1,,53.2789815,-7.4908951,62,"Emmet Terrace, Puttaghan, Tullamore, Co. Offaly, Ireland",6919,201805
2012-11-19,"Knockanae, Boher",,12,135000.0,0,0,1,,52.6251911,-8.4645868,58,"Boher, Co. Limerick, Ireland",411,201211
2017-09-10,"APT 7, 262 NORTH CIRCULAR ROAD, DUBLIN 7",,5,110900.0,0,0,1,,53.359038,-6.280231,65,"Flat 7, 262 N Circular Rd, Dublin, D07 R882, Ireland",1144,201709
2021-01-02,"25 Athlumney Close, Kentstown Road, Navan",,16,259912.0,0,1,0,,53.649348,-6.662215499999999,64,"25 Athlumney Cl, Bailis, Co. Meath, Ireland",1477,202101
2014-05-15,"103 ASHFIELD, NORTH RD, DROGHEDA",,14,170000.0,0,0,1,,53.717856,-6.3560985,57,"Drogheda, Co. Louth, Ireland",413,201405
2017-02-05,"20 Kellett's Grove, Lagore Road, Dunshaughlin",,16,321586.0,0,1,0,greater than or equal to 38 sq metres and less than 125 sq metres,53.5101588,-6.5134988,63,"Lagore Rd, Co. Meath, Ireland",5899,201702
2014-09-24,"17 EDWARD SQ, BLOOMFIELD, DONNYBROOK DUBLIN 4",Dublin 4,5,1374449.0,0,0,1,,53.32630959999999,-6.2458256,64,"4 Edward Square, Ranelagh, Dublin, Ireland",3345,201409
2014-12-03,"93 HAMPTON WOOD RD, HAMPTON WOOD, FINGLAS DUBLIN 11",Dublin 11,5,81400.0,0,0,1,,53.4055269,-6.2845135,64,"11 Hampton Wood Dr, Hampton Wood, Finglas, Dublin 11, D11 TXN2, Ireland",3955,201412
2021-06-12,"23 THE ORCHARD, RUSHBROOKE LINKS, COBH",,3,275000.0,0,0,1,,51.8503357,-8.294285799999999,57,"Cobh, Co. Cork, Ireland",400,202106
2016-03-18,"3 JANEMOUNT PARK, CORBALLY, LIMERICK",,12,158500.0,0,0,1,,52.6718608,-8.6158036,64,"3 Janemount Park, Corbally, Limerick, V94 W59K, Ireland",4312,201603
2012-01-06,"Apt 110 Alliance Building, The Gasworks Barrow Street, South Lotts Road",,5,164431.57,0,0,1,,53.3390643,-6.2351068,62,"The Gasworks, S Lotts Rd, Dublin 4, Ireland",3644,201201
2015-04-28,"187 The Oaks, Carrington, Santry  Dublin 9",,5,193595.0,0,1,0,greater than or equal to 38 sq metres and less than 125 sq metres,53.4046937,-6.2515245,44,"APARTMENT 151 ( 143 - 165 ), THE OAKS, 9 Carrington, Northwood Ave, Santry Demesne, Dublin, Co. Dublin, D09 FK38, Ireland",1024,201504
2018-12-28,"DRUM, BELMULLET, MAYO",,15,220000.0,0,0,1,,54.2238996,-9.9876028,57,"Belmullet, Co. Mayo, Ireland",414,201812
2016-03-23,"4 BUTTERGATE WAY, MORNINGTON, MEATH",,16,195000.0,0,0,1,,53.7115418,-6.2867134,64,"4 Buttergate Way, Donacarney Little, Donacarney, Co. Meath, A92 V0H6, Ireland",2064,201603
2020-12-18,"4 THE HEATHERS, CASTLEKNOCK ROAD, DUBLIN 15",Dublin 15,5,810000.0,0,0,1,,53.3735803,-6.363890899999999,62,"The Heathers, Castleknock Rd, Castleknock, Dublin 15, Ireland",4031,202012
2021-03-15,"30 STOCKING WOOD COPSE, STOCKING AVE, RATHFARNHAM",Dublin 16,5,260000.0,0,0,1,,53.2717579,-6.3199174,64,"30 Stocking Wood Copse, Ballycullen, Dublin, Ireland",6768,202103
2010-10-12,"1 Heeleys View, The Mall, Malahide",,5,352422.91,0,1,0,greater than 125 sq metres,53.4501032,-6.1529014,63,"Heeleys Ln, Malahide, Co. Dublin, Ireland",4664,201010
2019-05-07,"MAIN STREET, MUCKLAGH, TULLAMORE",,18,80000.0,0,0,1,,53.27552550000001,-7.4933852,57,"Tullamore, Co. Offaly, Ireland",417,201905
2020-07-23,"BECTIVE STREET, KELLS, CO MEATH",,16,320000.0,0,0,1,,53.7242144,-6.8805406,63,"Bective St, Townparks, Kells, Co. Meath, Ireland",6593,202007
2013-07-25,"16 Botley Court, Kilmalogue, Portarlington",,10,86000.0,0,0,1,,53.1641426,-7.192735700000001,64,"16 Botley Ct, Tinacrannagh, Portarlington, Co. Offaly, R32 T6P6, Ireland",1915,201307
2011-06-30,"Town Lough Uppe, Killaloe Ballina, Co. Tipperary",,21,378150.0,0,0,1,,52.8571569,-8.4052264,58,"Townlough Upper, Co. Tipperary, Ireland",7341,201106
2020-10-27,"112 LIMEKILN GREEN, WALKINSTOWN, DUBLIN 12",Dublin 12,5,386000.0,0,0,1,,53.3062523,-6.3370332,64,"112 Limekiln Green, Walkinstown, Dublin, D12 V3K5, Ireland",4592,202010
2017-06-15,"80 WYLIE'S HILL, BALLYBAY, CO MONAGHAN",,17,61000.0,0,0,1,,54.1327733,-6.8971272,64,"80 Wylie's Hill, Cornamucklaglass, Ballybay, Co. Monaghan, A75 KH93, Ireland",7747,201706
2010-03-31,"54 The Way, Hunters Run, Clonee",,5,241500.0,0,0,1,,53.40065999999999,-6.4205308,64,"54 The Way, Hunter's Run, Clonee, Co. Dublin, D15 VP4F, Ireland",7201,201003
2019-06-02,"16 Elder Heath Walk, Elder Heath, Kiltipper Road",Dublin 24,5,268722.0,0,1,0,,53.2718597,-6.380632599999999,64,"16 Elder Heath Dr, Kiltipper, Dublin 24, D24 XTE5, Ireland",3352,201906
2015-09-15,"LANAGANS COTTAGE, CAHARA, GLIN",,12,147000.0,0,0,1,,40.3339902,-74.0748017,19,"496 Shrewsbury Ave, Tinton Falls, NJ 07701, USA",6426,201509
2014-11-04,"806 RIVERPOINT, BISHOPS QUAY, LIMERICK",,12,80000.0,0,0,1,,52.6613744,-8.6325139,62,"Riverpoint, The Bishops Quay, Limerick, Ireland",906,201411
2015-07-24,"44 Castle Oaks, Castle Road, Bandon",,3,138943.0,0,1,0,greater than or equal to 38 sq metres and less than 125 sq metres,51.7414727,-8.7492691,64,"44 Castle Oaks, Gully, Bandon, Co. Cork, P72 R762, Ireland",2244,201507
2017-02-27,"24 AYLESBURY, AYLESBURY AVE, FERRYBANK",,9,160000.0,0,0,1,,52.2719221,-7.09511,64,"24 Aylesbury, Port an Chalaidh, Port Láirge, Co. Contae Chill Chainnigh, X91 V2RY, Ireland",1525,201702
2016-04-20,"AUGHAKEE, KILNALECK, CAVAN",,1,110000.0,0,0,1,,53.9016996,-7.308339499999999,58,"Aghakee, Co. Cavan, Ireland",398,201604
2014-10-27,"100 CARTUR MOR, BR AN CHLAI BHAIN UACH, CNOC NA CATHRACH",,6,260000.0,0,0,1,,53.2742524,-9.1040602,64,"100 Cartúr Mór, Galway, Ireland",2205,201410
2015-06-15,"36 The Paddocks Crescent, Adamstown",,5,271366.0,0,1,0,greater than or equal to 38 sq metres and less than 125 sq metres,53.3483491,-6.461971900000001,64,"36 The Paddocks Cres, Doddsborough, Lucan, Co. Dublin, K78 YY74, Ireland",7151,201506
2018-01-22,"20 AUBURN CLOSE, CLONMEL, TIPPERARY",,21,150000.0,0,0,1,,52.3649923,-7.713414699999999,64,"20 Auburn Cl, Cashel Rd, Ardgeeha Lower, Clonmel, Co. Tipperary, E91 DW93, Ireland",1479,201801
2021-10-11,"32 Carraig Mor, Caherdaniel, Bantry",,3,284615.0,1,1,0,,51.8994841,-8.5079732,31,"St. Anne's Pitch and Putt Club, 10 Shanakiel Rd, Ashboro, Sunday's Well, Cork, T23 Y431, Ireland",1323,202110
2020-06-07,"1 ROSE TERRACE, MAIN STREET, LOUTH",,14,165000.0,0,0,1,,53.95080000000001,-6.54062,57,"Commons, Louth Village, Ireland",717,202006
2015-08-20,"8 ORCHARD GROVE, NEWCASTLE, DUBLIN",Dublin 22,5,286000.0,0,0,1,,53.2984312,-6.4959351,64,"8 Orchard Grove, Cornerpark, Newcastle, Co. Dublin, D22 X792, Ireland",5450,201508
2015-09-22,"APT 145B LYMEWOOD MEWS, SANTRY, DUBLIN 9",,5,180000.0,0,0,1,,53.4038425,-6.2525972,44,"Santry Demesne, Dublin, Ireland",3122,201509
2012-12-21,"San Gerardo, 5 Clareview Terrace, South Circular Road",,12,100000.0,0,0,1,,52.6568635,-8.6353362,62,"Clare View Terrace, S Circular Rd, Limerick, Ireland",7407,201212
2015-10-21,"11 ESTUARY VIEW, BALLYNOE FARM, COBH",,3,262500.0,0,0,1,,51.856089,-8.3155243,64,"11 Estuary View, Ballynoe, Cobh, Co. Cork, P24 N726, Ireland",3422,201510
2021-04-20,"KNOCKRATHKYLE, GLENBRIEN, ENNISCORTHY",,24,245000.0,0,0,1,,52.46948949999999,-6.5270931,58,"Knockrathkyle, Co. Wexford, Ireland",423,202104
2021-03-30,"THIRD FLOOR, 36 O CONNELL STREET, DUBLIN",Dublin 1,5,200000.0,0,0,1,,53.3525541,-6.2610774,64,"36 O'Connell Street Upper, Rotunda, Dublin 1, D01 V0P0, Ireland",5332,202103
2012-08-15,"44 Cloyne Road, Kimmage, Dublin 12",,5,90000.0,0,0,1,,53.3182948,-6.2950336,64,"Avalon, 12 Cloyne Rd, Crumlin, Dublin 12, D12 E2V1, Ireland",25,201208
2021-03-09,"6 BROOMFIELD COURT, SHANKILL, DUBLIN",Dublin 18,5,605000.0,0,0,1,,53.2405397,-6.1241907,64,"6 Bóthar Sheangánaí, Cúirt Ghort Na Giolcaí, Seanchill, Baile Átha Cliath 18, Co. Contae Bhaile Átha Cliath, D18 H5K8, Ireland",2077,202103
2015-12-18,"'Innisfree', Hill Road, Whitegate",,3,215000.0,0,0,1,,52.822473642491516,-7.744852870130693,0,,0,201512
2012-03-23,"83  Rathfarnham Wood, Rathfarnham",,5,555000.0,0,0,1,,53.2959921,-6.2800097,64,"83 Rathfarnham Wood, Rathfarnham, Dublin 14, D14 A2V4, Ireland",5819,201203
2017-11-30,"RED ROSE HOUSE, DRONMORE DRIVE, MALLOW",,3,210000.0,0,0,1,,52.1281056,-8.6480827,63,"Dromore Dr, Ballydahin, Mallow, Co. Cork, Ireland",3178,201711
2017-10-07,"Alemese, Old Quarry, Dalkey",,5,1079295.14,0,1,0,greater than or equal to 38 sq metres and less than 125 sq metres,53.2761827,-6.1098558,63,"Old Quarry, Dalkey, Dublin, Ireland",5732,201710
2012-08-10,"2 Spencers Court, Enniscorthy",,24,133500.0,0,0,1,,52.51062049999999,-6.5697873,64,"2 Spencer's Ct, Blackstoops, Enniscorthy, Co. Wexford, Y21 T9X3, Ireland",6507,201208
2021-10-15,"65 WOODFIELD GROVE, KILLELINE, NEWCASTLE WEST",,12,237500.0,0,0,1,,52.4409687,-9.0484251,64,"65 Woodfield Grove, Killeline, Newcastle West, Co. Limerick, V42 D635, Ireland",7692,202110
2018-10-17,"SHANNONSIDE LODGE, RATHCLINE RD, LANESBORO",,13,183000.0,0,0,1,,53.672532,-7.9869051,63,"Rathcline Rd, Lanesborough, Co. Longford, Ireland",5956,201810
2017-01-03,"13 LEIN PARK, ARTANE, DUBLIN 5",Dublin 5,5,265000.0,0,0,1,,53.3821907,-6.186389399999999,64,"13 Lein Park, Harmonstown, Dublin 5, D05 WF84, Ireland",4557,201701
2015-05-20,"2 HEATHER PK, MARLEY WOOD RATHFARNHAM, DUBLIN 16",Dublin 16,5,375000.0,0,0,1,,53.274697,-6.2614467,64,"2 Heather Park, Rathfarnham, Dublin, D16 KW92, Ireland",4030,201505
2016-12-13,"17 PARLIAMENT ST, WATERFORD, WATERFORD",,22,62000.0,0,0,1,,52.2569077,-7.112324099999999,64,"17 Parliament St, Waterford, X91 E4AA, Ireland",5576,201612
2021-11-25,"19  Whitethorn Lawn, Whitethorn Village, Naas",,8,383217.92,0,1,0,,53.2112148,-6.6730588,44,"Naas West, Naas, Co. Kildare, Ireland",7528,202111
2012-11-30,"Cill Aodhan, Seafield Road, Killiney",,5,750000.0,0,0,1,,53.2497233,-6.1152545,63,"Seafield Rd, Dublin, Ireland",5919,201211
2021-01-10,"15 WHEATRIDGE, MARYBOROUGH WOODS DOUGLAS, CORK",,3,385000.0,0,0,1,,51.868809,-8.4307723,64,"15 Wheatridge, Maryborough Woods, Cork, T12 V12X, Ireland",7563,202101
2019-11-12,"1 ARTISANS BUILDINGS, WATERGATE STREET, BANDON",,3,154000.0,0,0,1,,51.7474017,-8.7316261,62,"Artisans Buildings, Watergate St, Knockbrogan, Bandon, Co. Cork, Ireland",2043,201911
2015-11-02,"8 ST FINIANS TERRACE, NAVAN, MEATH",,16,90000.0,0,0,1,,53.6498897,-6.6844044,64,"8 St Finian's Terrace, Dillonsland, Navan, Co. Meath, C15 E6T2, Ireland",6652,201511
2013-06-28,"1223, timolin, moone",,8,34690.0,1,0,1,,52.822473642491516,-7.744852870130693,0,,0,201306
2019-11-14,"10 UPPER MASSEYTOWN, MACROOM, CORK",,3,50414.0,1,0,1,,51.91794,-8.9753921,63,"Masseytown Rd, Co. Cork, Ireland",5888,201911
2017-06-28,"11 LATCHFORD SQ, CLONSILLA, DUBLIN 15",Dublin 15,5,227000.0,0,0,1,,53.39686409999999,-6.430835,64,"11 Latchford Square, Castaheany, Clonee, Co. Dublin, D15 P3KP, Ireland",4528,201706
2020-06-26,"2 The Nurseries, Taney Road, Dundrum",Dublin 14,5,733149.78,0,1,0,,53.2920326,-6.242125,46,"Drummartin, Dublin, Co. Dublin, Ireland",511,202006
2012-12-18,"grangemore, tynagh, loughrea",,6,88106.0,0,1,0,greater than 125 sq metres,53.150019,-8.3736439,57,"Tynagh, Co. Galway, Ireland",404,201212
2019-09-30,"47 BUCKLEYS LANE, LEIXLIP, KILDARE",,8,275000.0,0,0,1,,53.3637285,-6.4914045,64,"47 Buckley's Lane, Leixlip, Co. Kildare, W23 P786, Ireland",2041,201909
2019-11-07,"57 STEPASIDE PARK, STEPASIDE, DUBLIN 18",Dublin 18,5,762500.0,0,0,1,,53.25286939999999,-6.2104095,64,"57 Stepaside Park, Jamestown, Dublin 18, D18 RY98, Ireland",6763,201911
2016-02-02,"IDLEHOUR, ST FINBARS, AILESBURY RD DUBLIN 4",Dublin 4,5,1820000.0,0,0,1,,53.3200163,-6.2218999,63,"Ailesbury Rd, Dublin, Ireland",5919,201602
2021-07-05,"NO 3 SEAFIELD PARK, BLACKROCK, CO DUBLIN",,5,175000.0,0,0,1,,53.3076978,-6.2083927,64,"3 Seafield Park, Trimblestown, Blackrock, Co. Dublin, A94 W0C1, Ireland",6345,202107
2018-05-17,"2 AUPPER, JOHN ST, SLIGO",,20,85000.0,0,0,1,,54.2702137,-8.4796126,64,"2 Upper John St, Abbeyquarter North, Sligo, F91 F9YT, Ireland",7355,201805
2012-06-18,"Ballyloughlin, Glin",,12,44000.0,0,0,1,,52.822473642491516,-7.744852870130693,0,,0,201206
2016-01-27,"9 THE EARL, BARONS HALL HOUSE, BALBRIGGAN",,5,100000.0,0,0,1,,53.6125294,-6.2042009,62,"Apartment 5, Baron Hall House, Barons Hall Grove, Clogheder, Balbriggan, Co. Dublin, Ireland",1114,201601
2020-10-02,"35 ABBEY GARDENS, ABBEYSIDE, DUNGARVEN",,22,308370.0,0,1,0,,52.096627,-7.6040798,64,"35 Abbey Gardens, Dungarvan, Co. Waterford, Ireland",1186,202010
2020-08-19,"BALLAGHCULLIA, BALLINAGARE, CASTLEREA",,19,5252.0,1,0,1,,53.7686571,-8.4924537,57,"Demesne, Castlerea, Co. Roscommon, Ireland",366,202008
2019-06-09,"19 Willow Way, The Willows, Dunshaughlin",,16,330396.0,0,1,0,,53.50005460000001,-6.532134399999999,29,"Ballymurphy, The Commons, Co. Meath, Ireland",908,201906
2010-01-20,"10 Clogher Faili, Carrigeendaniel, Caherslee  Tralee",,7,360000.0,0,0,1,,52.27362489999999,-9.7231525,62,"Carraigmore, Clogher Failí, 10, Pluckeen, Tralee, Co. Kerry, Ireland",386,201001
2016-03-24,"11 CLAREMONT, BALLYFORAN, CO ROSCOMMON",,19,90000.0,0,0,1,,53.4707433,-8.2720833,64,"11 Claremont, Ballinasloe, Ballyforan, Co. Roscommon, H53 P280, Ireland",2480,201603
2012-12-20,"weavers hill, kilboy, ballyfeard",,3,320000.0,0,0,1,,51.75429,-8.40693,57,"Farraneen, Ballyfeard, Co. Cork, Ireland",253,201212
2020-09-30,"TOOREENNASLIGGAUN, CARAGH LAKE, KILLORGLIN",,7,255000.0,0,0,1,,52.0789887,-9.869185,58,"Tooreennasliggaun, Co. Kerry, Ireland",405,202009
2017-09-15,"7 Darley Lane, Belmont, Aiken's Village",,5,387665.0,0,1,0,greater than or equal to 38 sq metres and less than 125 sq metres,53.26328969999999,-6.2244888,59,"Aiken's Village, Dublin, Ireland",7421,201709
2020-01-22,"230 MC KEE AVE, FINGLAS, DUBLIN 11",Dublin 11,5,245000.0,0,0,1,,53.3967216,-6.3038194,64,"230 McKee Ave, Finglas East, Dublin 11, D11 Y0P1, Ireland",4950,202001
2018-12-20,"13 ELM MOUNT ROAD, BEAUMONT, DUBLIN 9",,5,170000.0,0,0,1,,53.3780553,-6.218110299999999,64,"9 Elm Mount Rd, Beaumont, Dublin, D09 A0W0, Ireland",3372,201812
2016-06-12,"32 COLLEGE GREEN, GREEN RD, CARLOW",,0,137500.0,1,0,1,,52.820481,-6.9373754,64,"32 College Green, Carlow, Ireland",2696,201606
2018-07-12,"66 Castleguard Manor, Ardee",,14,187225.17,0,1,0,greater than or equal to 38 sq metres and less than 125 sq metres,53.85697099999999,-6.5233224,44,"Broadlough, Ardee, Co. Louth, Ireland",208,201807
2018-08-23,"711 RIVERPOINT, THE BISHOPS QUAY, LIMERICK",,12,200000.0,0,0,1,,52.6613744,-8.6325139,62,"Riverpoint, The Bishops Quay, Limerick, Ireland",906,201808
2020-11-02,"5 ST AIDANS PARK, MARINO, DUBLIN 3",Dublin 3,5,345000.0,0,0,1,,53.36629190000001,-6.230894999999999,64,"5 St Aidan's Park Ave, Dublin 3, D03 H938, Ireland",6606,202011
2019-03-09,"30 BROOKFIELD COURT, BROOKFIELD GREEN, KIMMAGE DUBLIN 12",Dublin 12,5,281000.0,0,0,1,,53.3144301,-6.3009016,62,"Brookfield Court, Brookfield Green, Kimmage, Dublin 12, Ireland",2870,201903
2010-10-18,"67 maplewood avenue, springfield, tallaght",Dublin 24,5,170000.0,0,0,1,,53.28379109999999,-6.3845943,64,"67 Maplewood Ave, Springfield, Dublin 24, D24 K8R2, Ireland",4864,201010
2014-04-22,"LARGANTREAN, GLEN, CARRIGART",,4,17845.0,0,0,1,,55.1775506,-7.793277699999999,57,"Tirloughan, Carrickart, Co. Donegal, Ireland",345,201404
2019-03-20,"BALLINDRIMLEY, CASTLEREA, CO ROSCOMMON",,19,135000.0,0,0,1,,53.771505,-8.4938182,63,"Ballindrimley Rd, Demesne, Co. Roscommon, Ireland",5911,201903
2014-12-22,"154 BOHERMORE, GALWAY",,6,137399.0,0,0,1,,53.2786898,-9.044751699999999,64,"154 Bohermore, Galway, Co. Galway, H91 DKE7, Ireland",1888,201412
2021-06-01,"LEES COTTAGE, BALLYMORE WEST, BOYLE",,19,120000.0,0,0,1,,53.9356521,-8.336558199999999,62,"Lee's Cottage, Ballymore West, Boyle, Co. Roscommon, Ireland",2839,202106
2017-07-19,"101 GLENDARA, KILL, KILDARE",,8,345000.0,0,0,1,,53.2448287,-6.5908623,64,"101 Glendara, Newtown, Kill, Co. Kildare, W91 N9D5, Ireland",3743,201707
2012-05-17,"Mount Falcon, Ballina",,15,210000.0,0,0,1,,54.1149482,-9.1550693,57,"Ballina, Co. Mayo, Ireland",414,201205
2017-12-06,"57 Togher Way, Urlingford",,9,178000.0,1,1,0,greater than or equal to 38 sq metres and less than 125 sq metres,52.7150014,-7.587244399999999,64,"57 Togher Way, Urlingford, Co. Kilkenny, E41 VN88, Ireland",7254,201712
2021-07-30,"23 MONAMORE, LODGE ROAD, WESTPORT",,15,251365.0,0,1,0,,53.809356,-9.5028264,58,"Monamore, Co. Mayo, Ireland",414,202107
2016-12-02,"63 TONLEGEE RD, COOLOCK, DUBLIN 5",Dublin 5,5,321000.0,0,0,1,,53.3893275,-6.1968504,64,"5 Tonlegee Rd, Donaghmede, Dublin 5, D05 K6N7, Ireland",7261,201612
2018-11-23,"Apt 4A Gortoolan, Ballyconnell, Co Cavan",,1,44000.0,0,1,0,greater than or equal to 38 sq metres and less than 125 sq metres,54.1162175,-7.583954299999999,57,"Doon, Ballyconnell, Co. Cavan, Ireland",251,201811
2019-12-18,"ATHGARVAN, NEWBRIDGE, CO KILDARE",,8,555000.0,0,0,1,,53.1754257,-6.7992178,63,"Athgarvan Rd, Kilbelin, Newbridge, Co. Kildare, Ireland",5942,201912
2017-11-15,"8 ST ETCHENS COURT, KINNEGAD, WESTMEATH",,23,150000.0,0,0,1,,53.4562567,-7.1004815,64,"8 St Etchen's Ct, Kinnegad, Co. Westmeath, N91 PX57, Ireland",6648,201711
2018-08-24,"6 HARBOUR VIEW, CROOKE PASSAGE EAST, WATERFORD",,22,96000.0,0,0,1,,52.2297571,-6.975650099999999,64,"6 Harbour View, Crooke, Passage East, Co. Waterford, X91 DN82, Ireland",3973,201808
2016-11-05,"3 YELLOW CLAY MANOR, COMMONS RD, NAVAN",,16,90000.0,0,0,1,,53.6450235,-6.6988797,62,"Yellow Clay Manor, Commons Rd, Clogherboy, Navan, Co. Meath, Ireland",2497,201611
2021-05-07,"11  12 and 13 BARRACK ST, GORESBRIDGE, KILKENNY",,9,30000.0,0,0,1,,52.6305233,-6.9942002,64,"13 Barrack St, Barrowmount, Goresbridge, Co. Kilkenny, R95 E2T6, Ireland",1614,202105
2017-04-14,"54 CLUAIN CRAOIBH, MULLINGAR RD, KINNEGAD",,23,128000.0,0,0,1,,53.4571911,-7.107721499999999,64,"54 Cluain Craoibh, Kinnegad, Co. Westmeath, Ireland",2591,201704
2013-06-12,"APARTMENT 6, O'CONNELL COURT, DOMINIC STREET",,3,16444.23,1,0,1,,51.8729825,-8.4974493,44,"Togher Rd, Lehenagh Beg, Cork, Ireland",5957,201306
2011-11-21,"7 Kincora Avenue, Clontarf",Dublin 3,5,500000.0,0,0,1,,53.36337109999999,-6.209676,64,"7 Kincora Ave, Clontarf, Dublin 3, D03 R658, Ireland",4425,201111
2014-10-31,"236 Morell Dale, Naas",,8,220000.0,0,0,1,,53.2365931,-6.6577273,64,"236 Morell Dale, Monread South, Naas, Co. Kildare, W91 W22D, Ireland",5129,201410
2013-01-02,"5 Valentine Villas, The Lough, Cork",,3,173000.0,0,0,1,,51.8895311,-8.483922,64,"5 Valentine Villas, The Lough, Cork, T12 YR2X, Ireland",7362,201301
2017-03-03,"49 WELLPARK RD, WELLPARK, GALWAY",,6,220000.0,0,0,1,,53.2838979,-9.0281919,64,"Jairdin Lodge, 49 Wellpark Rd, Galway, Co. Galway, H91 PHC1, Ireland",4678,201703
2010-01-18,"7 Riverchapel Road, Riverchapel Wood, Courtown",,24,159325.11,0,1,0,greater than or equal to 38 sq metres and less than 125 sq metres,52.6395178,-6.238928100000001,64,"7 Riverchapel Rd, Ballinatray Upper, Riverchapel, Co. Wexford, Y25 N267, Ireland",6094,201001
2015-05-11,"3 Richmond Court, Newline Road, Wexford",,24,164556.0,0,1,0,greater than or equal to 38 sq metres and less than 125 sq metres,52.31196749999999,-6.532406300000001,59,"New Line Road, Forestry Road, Co. Wexford, Ireland",4611,201505
2015-01-28,"20 BRACKENSTOWN AVE, SWORDS, CO DUBLIN",,5,387000.0,0,0,1,,53.4604864,-6.2288695,64,"20 Brackenstown Ave, Commons West, Swords, Co. Dublin, K67 FY74, Ireland",1927,201501
2017-02-08,"1 GLENAGEARY HALL, GLENAGEARY, DUN LAOIRE",,5,900000.0,0,0,1,,53.2763139,-6.125003,64,"1 Glenageary Hall, Glenageary, Dublin, A96 K1W2, Ireland",3720,201702
2014-11-20,"1 ROMAN STREET, CORK CITY",,3,100000.0,0,0,1,,51.9044865,-8.4756901,64,"1 Roman St, Shandon, Cork, T23 P5DY, Ireland",6181,201411
2021-09-02,"38 CURRAHEEN RD, HALLDENE ESTATE, BISHOPSTOWN",,3,355000.0,0,0,1,,51.8748112,-8.5371036,62,"Halldene Estate, Curraheen Rd, Bishopstown, Cork, Ireland",3420,202109
2017-07-27,"THE STUMP OF THE CASTLE, RATHDRUM, CO WICKLOW",,25,240000.0,0,0,1,,52.94943079999999,-6.2261918,58,"Stump of the Castle, Corballis, Co. Wicklow, Ireland",7766,201707
2018-04-25,"24 SILCHESTER PARK, GLENAGEARY, DUN LAOGHAIRE",,5,672500.0,0,0,1,,53.2814072,-6.1304922,64,"24 Silchester Park, Glenageary, Dublin, A96 X9R0, Ireland",6432,201804
2021-03-12,"16 HILLVIEW, BELLINGSFIELD, KILCULLEN ROAD",,8,457000.0,0,0,1,,53.1967486,-6.6668175,44,"Bellingsfield, Broadfield, Naas, Co. Kildare, Ireland",315,202103
2019-08-11,"114 SOMMERVILLE, RATOATH, MEATH",,16,283000.0,0,0,1,,53.50434540000001,-6.4740175,64,"114 Somerville, Curkeen, Ratoath, Co. Meath, A85 XH29, Ireland",6478,201908
2019-11-29,"APT 22 BLOCK 1 IVY EXCHANGE, PARNELL STREET, DUBLIN 1",Dublin 1,5,325256.4,0,0,1,,53.3499018,-6.2676521,44,"Parnell St, Rotunda, Dublin 1, D01 N528, Ireland",6583,201911
2018-01-16,"BALTIMORE ROAD, SKIBEREEN, CORK",,3,150000.0,0,0,1,,51.5398239,-9.2738927,63,"Baltimore Rd, Co. Cork, Ireland",5888,201801
2021-10-12,"APT 17 & 18, NELSON HOUSE, 16 NELSON ST",,8,323000.0,0,0,1,,52.822473642491516,-7.744852870130693,0,,0,202110
2016-05-23,"62 WOODVIEW, MOUNT MERRION AVE, BLACKROCK",,5,415000.0,0,0,1,,53.300418,-6.1886511,64,"62 Woodview, Blackrock, Dublin, Ireland",7733,201605
2016-10-21,"66 DONSCOURT, BISHOPSTOWN, CORK",,3,267000.0,0,0,1,,51.8771874,-8.5129153,64,"Carraig Aonair, 66 Donscourt, Bishopstown, Cork, T12 P7KT, Ireland",1340,201610
2020-11-02,"29 CLEEVAUN, NAAS, KILDARE",,8,295000.0,0,0,1,,53.2121672,-6.656905399999999,64,"Ravenville, 29 Cleevaun, Naas East, Naas, Co. Kildare, W91 FF2Y, Ireland",93,202011
2018-10-07,"KNOX PARK, BALLISODARE, COUNTY SLIGO",,20,61500.0,0,0,1,,54.2121162,-8.5090366,57,"Knockmuldoney, Ballysadare, Co. Sligo, Ireland",271,201810
2017-02-15,"1 CLARAN COURT, MAIN STREET, LIFFORD",,4,150000.0,0,0,1,,54.8328751,-7.485638899999999,57,"Lifford, Co. Donegal, Ireland",402,201702
2021-08-03,"FOUR SEASONS, KILLEAGH, BLACKWATER",,24,330000.0,0,0,1,,51.9424888,-7.9920158,57,"Killeagh Gardens, Killeagh, Co. Cork, Ireland",3633,202108
2016-01-25,"1 BLACKBERRY GLADE, ARKLOW, CO WICKLOW",,25,219000.0,0,0,1,,52.7915778,-6.1553134,64,"1 Blackberry Glade, Abbeylands, Arklow, Co. Wicklow, Y14 X660, Ireland",1841,201601
2018-10-25,"30 SHANDON PARK, PHIBSBORO, DUBLIN 7",Dublin 7,5,510000.0,0,0,1,,53.3652203,-6.2775792,64,"30 Shandon Park, Phibsborough, Dublin, D07 HXH0, Ireland",6392,201810
2018-03-05,"16 FERNLEIGH DR, CASTLEKNOCK, DUBLIN 15",Dublin 15,5,292000.0,0,0,1,,53.3736447,-6.4033982,64,"16 Fernleigh Dr, Carpenterstown, Dublin 15, D15 R1X3, Ireland",3515,201803
2021-08-10,"63 BOROIMHE ALDER, SWORDS, DUBLIN",,5,315000.0,0,0,1,,53.4435006,-6.238296399999999,64,"63 Boroimhe Alder, Fosterstown North, Swords, Co. Dublin, K67 KA09, Ireland",1901,202108
2014-12-12,"39 THE CHASE, COLCOTTS, WEXFORD",,24,120000.0,0,0,1,,52.3363307,-6.4878823,64,"39 The Chase, Coolcots, Wexford, Y35 N40H, Ireland",6969,201412
2016-12-20,"57B BELMAYNE, BALGRIFFIN, BELMAYNE",Dublin 13,5,209000.0,0,0,1,,53.4096881,-6.176562700000001,58,"Balgriffin, Co. Dublin, Ireland",403,201612
2018-04-07,"6 DUN UISCE, BALLYBOYLE, DONEGAL",,4,180000.0,0,0,1,,54.6423364,-8.1419106,37,"1, Ballyboyle, Dunuisce, Co. Donegal, F94 E2A8, Ireland",247,201804
2016-01-03,"10 WALNUT RISE, DRUMCONDRA, DUBLIN 9",Dublin 9,5,520000.0,0,0,1,,53.3780024,-6.2566869,64,"10 Walnut Rise, Courtlands, Dublin, D09 Y6V3, Ireland",7454,201601
2019-01-07,"12 CLAREMONT, BALLYFORAN, CO ROSCOMMON",,19,123000.0,0,0,1,,53.4707734,-8.2719614,64,"12 Claremont, Ballinasloe, Ballyforan, Co. Roscommon, H53 T044, Ireland",2481,201901
2016-09-05,"20 CURRAGH BIRIN, CASTLETROY, CO LIMERICK",,12,131000.0,0,0,1,,52.6644275,-8.578607,64,"20 Curragh Birin, Reboge Meadows, Castletroy, Co. Limerick, V94 H0CP, Ireland",3035,201609
2011-09-02,"2 GLENDHU ROAD, OFF NAVAN ROAD",Dublin 7,5,265000.0,0,0,1,,53.37427169999999,-6.3231799,64,"Signpost, 2 Glendhu Rd, Ashtown, Dublin 7, D07 DF70, Ireland",97,201109
2018-07-17,"16 Cluain Ard, Dernagrew",,17,193932.45,1,0,1,,54.264226,-6.9642225,64,"16 Cluain Ard, Derrynagrew, Co. Monaghan, H18 WV10, Ireland",2585,201807
2017-01-31,"34 WESTFIELD, BECTIVE ST, KELLS",,16,165000.0,0,0,1,,53.7242144,-6.8805406,63,"Bective St, Townparks, Kells, Co. Meath, Ireland",6593,201701
2019-12-16,"37 BELADD, PORTLAOISE, LAOIS",,10,169000.0,0,0,1,,53.03135150000001,-7.269921699999999,64,"37 Beladd Upper, Beladd, Portlaoise, Co. Laois, R32 D58P, Ireland",1738,201912
2021-01-29,"36 LIMEKILN RD, DUBLIN 12, DUBLIN",Dublin 12,5,560000.0,0,0,1,,53.3042189,-6.3251691,64,"36 Limekiln Rd, Walkinstown, Dublin, D12 RT0A, Ireland",4595,202101
2020-05-11,"70 LARKFIELD GARDENS, TERENURE, DUBLIN 6W",,5,385000.0,0,0,1,,53.3173128,-6.288631500000001,65,"6w, 70 Larkfield Gardens, Kimmage, Terenure, Dublin 6W, Co. Dublin, D6W A996, Ireland",165,202005
2020-04-17,"57 Beaulieu Village, Termonfeckin Road, Drogheda",,14,225110.13,0,1,0,,53.72950849999999,-6.3270529,64,"57 Beaulieu Village, Newtownstalaban, Co. Louth, Ireland",1668,202004
2017-10-20,"TONLAGEE, BALLYCONNELL, CAVAN",,1,83000.0,0,0,1,,54.1162175,-7.583954299999999,57,"Doon, Ballyconnell, Co. Cavan, Ireland",251,201710
2011-04-10,"Number 7, Tyleadon Heights, Monaghan",,17,270000.0,0,1,0,greater than 125 sq metres,54.2492434,-6.9683082,57,"Monaghan, Ireland",603,201104
2016-12-23,"145 KILDARE ROAD, CRUMLIN, DUBLIN 12",Dublin 12,5,280000.0,0,0,1,,53.32484239999999,-6.304534599999999,64,"145 Kildare Rd, Crumlin, Dublin 12, D12 P6P3, Ireland",4370,201612
2017-09-20,"BARONSLAND, THOMASTOWN, CO KILKENNY",,9,370000.0,0,0,1,,52.5708098,-7.168863300000001,58,"Baronsland, Co. Kilkenny, Ireland",408,201709
2013-11-18,"8 Murmount Park, Montenotte, Cork",,3,183000.0,0,0,1,,51.9099426,-8.4435108,64,"8 Murmont Park, Montenotte, Cork, T23 A9W2, Ireland",5219,201311
2019-10-30,"50 CRANNAGH PARK, RATHFARNHAM, DUBLIN 14",Dublin 14,5,642000.0,0,0,1,,53.3014705,-6.2782295,64,"50 Crannagh Park, Rathfarnham, Dublin 14, D14 PY63, Ireland",2947,201910
2014-02-28,"APT 20, ADELAIDE SQ, WHITEFRIAR ST DUBLIN 8",,5,318405.0,0,0,1,,53.3401177,-6.2676415,63,"Whitefriar St, Dublin, Ireland",6560,201402
2016-01-09,"ROSE COTTAGE, 1 WOODLANDS, CASTLEDERMOT",,8,88000.0,0,0,1,,52.9118755,-6.837567,57,"Mullarney, Castledermot, Co. Kildare, Ireland",361,201601
2018-09-28,"1 The Brambles, Blackberry Lane, Rathmines",Dublin 6,5,803524.22,0,1,0,greater than or equal to 125 sq metres,53.3286461,-6.2653705,63,"Blackberry Ln, Rathmines, Dublin, Ireland",4667,201809
2021-07-29,"APT 205, ABBEY RIVER COURT, SHEEPSTREET",,12,161000.0,0,0,1,,52.6681245,-8.6209227,62,"Apartment 407, Abbey River Court, Sheep St, Mary St, Limerick, Ireland",1106,202107
2015-12-22,"4 PARK VIEW WEST, TEMPLEMORE, TIPPERARY",,21,80000.0,0,0,1,,52.7993882,-7.832941399999999,64,"4 Park View W, Kiltillane, Templemore, Co. Tipperary, E41 C893, Ireland",5557,201512
2014-06-17,"12 BELMONT SQ, RAHENY, DUBLIN 5",Dublin 5,5,293000.0,0,0,1,,53.3844009,-6.1725257,64,"12 Belmont Square, Donaghmede, Dublin 5, D05 KW53, Ireland",1790,201406
2021-11-19,"CLONCOLMAN, LISSYCASEY, ENNIS",,2,40000.0,0,0,1,,52.74688,-9.15188,57,"Clooncolman, Lissycasey, Co. Clare, Ireland",708,202111
2013-07-30,"12 Upper Beechwood Avenue, Ranelagh",Dublin 6,5,750000.0,0,0,1,,53.3202437,-6.2540689,64,"12 Beechwood Ave Upper, Ranelagh, Dublin 6, D06 FY61, Ireland",1715,201307
2015-06-11,"5 MARKET COURT, DUNDALK ST, CARLINGFORD",,14,165000.0,0,0,1,,54.0396383,-6.18758,62,"Market Court, Dundalk St, Liberties of Carlingford, Carlingford, Co. Louth, Ireland",2882,201506
2017-02-27,"6 OLD BROOK COURT, LECK RD, LETTERKENNY",,4,185000.0,0,0,1,,54.9420879,-7.7258209,63,"Leck Rd, Scribly, Co. Donegal, Ireland",5992,201702
2014-10-23,"79 WOODAVANS, LUCAN RD, CLONDALKIN DUBLIN 22",Dublin 22,5,149950.0,0,0,1,,53.3486257,-6.3471224,64,"22 Lucan Rd, Chapelizod, Dublin, Ireland",4765,201410
2011-10-24,"9 Old Coast Guard Station, Renvyle",,6,110000.0,0,0,1,,53.5951968,-9.957940899999999,59,"Renvyle, Tully, Co. Galway, Ireland",949,201110
2014-10-02,"1 THE GREENLANDS, CASTLESIDE DRIVE, RATHFARNHAM",,5,315000.0,0,0,1,,53.2980262,-6.279562899999999,64,"1 The Greenlands, Rathfarnham, Dublin, Ireland",7069,201410
2016-07-27,"OGHILL, INNISKEEN, CARRICKMACROSS",,17,280000.0,0,0,1,,53.9760832,-6.723793,62,"Oghill House, Meadowlands, Drummond Etra, Carrickmacross, Co. Monaghan, Ireland",4204,201607
2013-03-26,"10 UARAN AN TOIRIN, FARRANTOOREEN, KILLORGLIN",,7,127753.0,0,1,0,greater than or equal to 38 sq metres and less than 125 sq metres,52.0973213,-9.790931400000002,64,"10 Uaran An Toirín, Farrantoreen, Killorglin, Co. Kerry, V93 V254, Ireland",7328,201303
2018-06-15,"301 AN SEAN MHUILEANN, NORTH CIRCULAR RD, TRALEE",,7,72500.0,0,0,1,,52.2712096,-9.700349899999999,44,"The Old Mill Apartments, N Circular Rd, Cloonalour, Tralee, Co. Kerry, Ireland",5426,201806
2010-03-23,"Glounashee, Ballea Road  Carrigaline",,3,390000.0,0,0,1,,51.8170747,-8.4025778,63,"Ballea Rd, Carrigaline, Co. Cork, Ireland",5872,201003
2018-06-21,"CORLASKAGHKILNAGROSS, CARRICK ON SHANNON, LEITRIM",,11,68000.0,0,0,1,,53.94511559999999,-8.086187899999999,57,"Carrick-On-Shannon, Co. Leitrim, Ireland",410,201806
2014-10-07,"THE MEADOWS, BRAYSTOWN, LOBINSTOWN",,16,288000.0,0,0,1,,53.7851029,-6.6463604,57,"Lobinstown, Co. Meath, Ireland",415,201410
2017-02-05,"4 BEACON HILL, FAHAN, CO DONEGAL",,4,246000.0,0,0,1,,55.08814109999999,-7.470583299999999,64,"4 Beacon Hill, Figary, Fahan, Co. Donegal, F93 VF43, Ireland",1649,201702
2021-08-13,"86 ST MOLLERANS, CARRICKBEG, CARRICK ON SUIR",,21,120000.0,0,0,1,,52.3418097,-7.412872500000001,64,"86 St Molleran's, Carrickbeg, Carrick-On-Suir, Co. Tipperary, E32 YP57, Ireland",6717,202108
2018-07-16,"115 RATOATH RD, CABRA, DUBLIN",Dublin 7,5,312000.0,1,0,1,,53.3654048,-6.300457199999999,64,"115 Ratoath Rd, Cabra West, Dublin 7, D07 V063, Ireland",5838,201807
2012-02-02,"137 Dun na Carraige, Blackrock, Salthill",,6,300000.0,0,0,1,,53.2602036,-9.092279,64,"137 Dun Na Carraige, Salthill, Co. Galway, H91 KC5P, Ireland",3251,201202
2020-05-22,"41 CHURCHWELL RD, BELMAYNE, DUBLIN 13",Dublin 13,5,330000.0,0,0,1,,53.4043179,-6.1711319,64,"41 Churchwell Rd, Belmayne, Dublin, D13 FV30, Ireland",2452,202005
2015-01-05,"5 CATHEDRAL STREET, CORK",,3,85500.0,0,0,1,,51.9044996,-8.4769802,64,"5 Cathedral St, Shandon, Cork, T23 AK1V, Ireland",2319,201501
2021-06-30,"GORTRUE, SNEEM, KERRY",,7,80000.0,1,0,1,,51.8373942,-9.8983245,57,"Inchinaleega East, Sneem, Co. Kerry, Ireland",3319,202106
2019-06-21,"BALLINAKILLBEG, BENNEKERRY, CARLOW",,0,250000.0,0,0,1,,52.83776779999999,-6.8759787,58,"Ballynakillbeg, Co. Carlow, Ireland",396,201906
2018-07-24,"Apartment 10, Bramley Hall, Diswellstown",Dublin 15,5,295154.0,0,1,0,greater than or equal to 38 sq metres and less than 125 sq metres,53.3690373,-6.3826511,44,"Diswellstown Ave, Carpenterstown, Castleknock, Co. Dublin, D15 DWN3, Ireland",1496,201807
2016-12-15,"CARNAHALLA, FIRVILLE, MALLOW",,3,350000.0,0,0,1,,52.587331,-8.210609999999999,40,"Moher West, Co. Tipperary, Ireland",7522,201612
2013-08-28,"18 HAZELWOOD, DUBLIN ROAD, THURLES",,21,160000.0,0,0,1,,52.6798221,-7.7920401,64,"18 Hazelwood Grove, Wrensborough, Thurles, Co. Tipperary, E41 X4X8, Ireland",4020,201308
2018-12-21,"15 WOODLANDS AVE, RENMORE, GALWAY",,6,260000.0,0,0,1,,53.2776212,-9.028499199999999,64,"15 Woodlands Ave, Renmore, Galway, H91 DR50, Ireland",7707,201812
2010-08-20,"41 Pebble Drive, Pebble Beach, Tramore",,22,60000.0,0,0,1,,52.1635095,-7.141793,63,"Pebble Drive, Tramore, Co. Waterford, Ireland",3197,201008
2018-02-22,"36 CLUAIN DARA, KNOCKNACARRA, GALWAY",,6,260000.0,0,0,1,,53.26848589999999,-9.1115999,64,"36 Cluain Dara, Knocknacarra, Galway, Co. Galway, H91 E94C, Ireland",2596,201802
2017-06-09,"RATHKEA, MOUNT BRUIS, TIPPERARY",,21,202000.0,0,0,1,,52.4517628,-8.2288622,58,"Rathkea, Barronstown, Co. Tipperary, Ireland",278,201706
2020-11-11,"LAHARN EAST, BANTRY, CORK",,3,250000.0,0,0,1,,51.6800803,-9.452576299999999,57,"Bantry, Co. Cork, Ireland",400,202011
2016-12-19,"28 WOODBROOK COURT, RIVERWOOD RD, CARPENTERSTOWN DUBLIN 15",Dublin 15,5,255000.0,0,0,1,,53.3758001,-6.4040157,64,"28 Woodbrook Court, Porterstown, Dublin, Ireland",7684,201612
2018-10-24,"22 THE ORCHARD, CARPENTERSTOWN RD, CARPENTERSTOWN DUBLIN 15",Dublin 15,5,207000.0,0,0,1,,53.37489000000001,-6.3883377,62,"The Orchard, Carpenterstown Road, Carpenterstown, Dublin 15, Ireland",5446,201810
2012-05-15,"Coneybeg, Watergrasshill",,3,320000.0,0,0,1,,51.9875548,-8.3948932,58,"Coneybeg, Co. Cork, Ireland",400,201205
2020-05-02,"APT 1, TARA AN CAISLEAIN, BALLINCOLLIG",,3,207000.0,0,0,1,,51.8841976,-8.604748299999999,59,"An Caisleán, Ballincollig, Co. Cork, Ireland",2103,202005
2013-12-20,"11 ANNER RD, INCHICORE, DUBLIN 8",,5,270000.0,0,0,1,,53.3389774,-6.312263799999999,64,"11 Anner Rd, Kilmainham, Dublin, D08 P7Y0, Ireland",1325,201312
2014-03-12,"20 DURHAM RD, SANDYMOUNT, DUBLIN 4",Dublin 4,5,900000.0,0,0,1,,53.3304327,-6.212693199999999,64,"20 Durham Rd, Dublin 4, D04 H922, Ireland",3278,201403
2019-10-04,"45 WALNUT RISE, WHITEHALL, GRIFFITH AVE DUBLIN 9",Dublin 9,5,640000.0,0,0,1,,53.377797,-6.2533594,64,"45 Walnut Rise, Courtlands, Dublin, D09 N6W6, Ireland",7453,201910
2021-07-01,"KNOCKROE, ATTYMON, ATHENRY",,6,130000.0,0,0,1,,53.3213127,-8.6060002,53,"Attymon, Cappanasruhaun, Co. Galway, Ireland",336,202107
2011-03-06,"44 Carrigcourt, Fortunestown Lane, Saggart",,5,246696.03,0,1,0,greater than or equal to 38 sq metres and less than 125 sq metres,53.2846136,-6.4306382,64,"44 Carrig Ct, Fortunestown, Dublin, Ireland",2187,201103
2021-08-16,"6 PARKVIEW TERRACE, ATHLUNKARD ST, LIMERICK",,12,145000.0,0,0,1,,52.6735283,-8.6398724,64,"6 Parkview Terrace, Hassett's Cross, Limerick, Ireland",5575,202108
2015-04-30,"TREENAGLERAGH, KILTIMAGH, CO. MAYO",,15,37000.0,0,0,1,,53.8494839,-8.9994739,57,"Kiltimagh, Co. Mayo, Ireland",414,201504
2019-05-29,"27 Fenton Green, Church Street, Kilcock",,8,311013.22,0,1,0,,53.3994266,-6.6681233,57,"Commons East, Kilcock, Co. Kildare, Ireland",3311,201905
2021-09-09,"19 PRESENTATION RD, GALWAY",,6,400000.0,0,0,1,,53.2735269,-9.0621732,64,"Erin Villa, 19 Presentation Rd, Galway, Co. Galway, H91 T68K, Ireland",7412,202109
2013-08-19,"61 St Corban's Place, Naas",,8,80000.0,0,0,1,,53.2219595,-6.6574437,64,"61 St Corban's Pl, Tipper West, Naas, Co. Kildare, W91 TD9C, Ireland",6639,201308
2012-12-14,"3 BERESFORD HOUSE, CUSTOM HOUSE SQUARE",,5,97000.0,0,0,1,,41.635048,-70.924628,42,"Custom House Square, 21 Barkers Ln, New Bedford, MA 02740, USA",4232,201212
2015-10-04,"Apartment 49  Park Lodge, 7-9 North Circular Road",Dublin 7,5,256301.67,0,0,1,,53.3527022,-6.298031399999999,65,"Apartment 7, Park Lodge, 7/9 N Circular Rd, Cabra East, Dublin, D07 DT88, Ireland",1149,201510
2010-12-22,"2 Lakeview, Mayfield, Claremorris",,15,167400.0,0,1,0,greater than 125 sq metres,53.72387639999999,-9.0017356,57,"Clare, Claremorris, Co. Mayo, Ireland",380,201012
2020-09-12,"CARNAGORE, CARRIGART, DONEGAL",,4,139000.0,0,0,1,,55.1464951,-7.8074436,58,"Carnagore, Carrigeen, Co. Donegal, Ireland",349,202009
2018-01-02,"5 KILADREENAN CLOSE, NEWTOWNMOUNTKENNEDY, WICKLOW",,25,225000.0,0,0,1,,53.0855398,-6.104180299999999,64,"5 Killadreenan Cl, Moneycarroll, Newtown Mount Kennedy, Co. Wicklow, A63 WV06, Ireland",4376,201801
2021-04-26,"13 THE GLEBE, MONASTEREVIN, KILDARE",,8,267000.0,0,0,1,,53.1400651,-7.060377,57,"Monasterevin, Co. Kildare, Ireland",406,202104
2021-03-19,"Clough, Gurteen, Ballinasloe",,6,185022.0,0,1,0,,53.99049189999999,-8.513024699999999,58,"Gorteen, Co. Sligo, Ireland",419,202103
2020-05-10,"BALLYNASHEEOGE, TURLOUGHMORE, CO GALWAY",,6,105000.0,0,0,1,,53.3764972,-8.8483424,58,"Ballynasheeoge, Co. Galway, Ireland",404,202005
2018-04-20,"28 GLENARM SQ, DARGLE RD, DUBLIN",Dublin 9,5,310000.0,0,0,1,,53.3659109,-6.2577544,64,"28 Glenarm Ave, Botanic, Dublin, Ireland",3725,201804
2016-02-03,"2 Westgate Road, Bishopstown",,3,300000.0,0,0,1,,51.8793365,-8.523151,64,"Castlelack, 2 Westgate Rd, Bishopstown, Cork, T12 H6YW, Ireland",103,201602
2021-02-11,"102 Butlers View, Ballinglanna, Glanmire",,3,215859.0,0,1,0,,51.9202494,-8.3886305,64,"102 Butlers View, Ballinglanna, Glanmire, Co. Cork, T45 KC59, Ireland",2058,202102
2019-04-18,"15 mill gate, millerstown, kilcock",,16,286342.73,0,1,0,,53.3976012,-6.657926199999999,64,"15 Mill Gate, Newtownmoyaghy, Co. Meath, Ireland",5039,201904
2018-11-23,"12 Dunville Lawn, Athlumney, Navan",,16,246696.0,0,1,0,greater than or equal to 38 sq metres and less than 125 sq metres,53.6451708,-6.6513214,64,"12 Dunville Lawn, Bailis, Co. Meath, Ireland",3275,201811
2012-09-17,"7 Kilbelin Park, Newbridge",,8,200500.0,0,0,1,,53.1724952,-6.794319799999999,64,"7 Kilbelin Park, Kilbelin, Newbridge, Co. Kildare, W12 A072, Ireland",4357,201209
2021-04-02,"THE KOPPIE, SNEEM, ANKAIL",,7,360000.0,0,0,1,,51.8325007,-9.8449037,58,"Ankail, Co. Kerry, Ireland",405,202104
2013-12-12,"2 college sq, terenure",Dublin 6w,5,581500.0,0,1,0,greater than or equal to 38 sq metres and less than 125 sq metres,53.3065344,-6.307884,64,"2 College Square, Terenure, Dublin 6W, Co. Dublin, D6W EP60, Ireland",2715,201312
2019-01-03,"93 Ballygossan Park, Golf Links Road, Skerries",,5,458149.0,0,1,0,,53.5694415,-6.112421299999999,64,"93 Ballygossan Park, Hacketstown, Skerries, Co. Dublin, Ireland",1563,201901
2011-07-21,"1 Na Banta, Ladysbridge",,3,120000.0,0,0,1,,51.8989662,-8.040986199999999,64,"1 Na Bánta, Lady's Bridge, Ladysbridge, Co. Cork, P25 C940, Ireland",5238,201107
2015-04-13,"14 FINISTERE, RUSH, DUBLIN",,5,220000.0,0,0,1,,53.5207574,-6.082633899999999,64,"14 Finistere, Rush, Co. Dublin, K56 WD63, Ireland",3535,201504
2021-01-29,"4 THE CLOISTERS, SPUNKANE, WATERVILLE",,7,270000.0,0,1,0,,51.8442964,-10.1687133,58,"Spunkane, Top Cross, Co. Kerry, Ireland",939,202101
2017-01-12,"APT 4 GREEN STORES APTS, BALLYHAUNIS RD, CLAREMORRIS",,15,145000.0,0,0,1,,53.7207783,-8.9963812,21,"6 Ballyhaunis Rd, Clare, Claremorris, Co. Mayo, F12 D2P8, Ireland",1564,201701
2015-05-22,"CAPPINCUR, TULLAMORE, OFFALY",,18,182000.0,0,0,1,,53.2759484,-7.4470303,58,"Cappincur, Spollanstown Industrial Estate, Co. Offaly, Ireland",875,201505
2020-02-17,"18 ST COLUMBANUS AVE, MILLTOWN, DUBLIN 14",Dublin 14,5,532000.0,0,0,1,,53.3058861,-6.249287700000001,64,"18 St Columbanus' Ave, Farranboley, Dublin 14, D14 T250, Ireland",6638,202002
2014-01-31,"EDERGOLE, DROMAHAIR, CO LEITRIM",,11,41000.0,0,0,1,,54.2123319,-8.3072717,58,"Edergole, Co. Leitrim, Ireland",410,201401
2015-12-18,"27 ALLENDALE AVE, BISHOPSTOWN, CORK",,3,155000.0,1,0,1,,51.8807904,-8.5291509,64,"27 Allendale Ave, Bishopstown, Cork, T12 A5D0, Ireland",1265,201512
2013-10-12,"62 Ard Thomain, Sli na Manach, Mungret",,12,185021.48,0,1,0,greater than or equal to 38 sq metres and less than 125 sq metres,52.6372054,-8.6766525,64,"62 Ard Thomain, Skehacreggaun, Limerick, Co. Limerick, V94 NTP4, Ireland",1376,201310
2021-01-13,"132 THE WALLED GARDENS, CASTLEDOWN ESTATE, CELBRIDGE",,8,285000.0,0,0,1,,53.3493108,-6.541720900000001,64,"132 The Walled Gardens, Castletown, Celbridge, Co. Kildare, W23 KN70, Ireland",7198,202101
2018-07-31,"18 RIVERWALK, TIR CLUAIN, MIDLETON",,3,200000.0,0,0,1,,51.9295482,-8.1877814,64,"18 Riverwalk, Broomfield West, Tír Cluain, Co. Cork, P25 XH24, Ireland",6110,201807
2016-10-26,"33 FERRYVIEW PARK, PRIESTS AVE, RINGASKIDDY",,3,155000.0,0,0,1,,51.8292014,-8.3221699,64,"33 Ferryview Park, Loughbeg, Ringaskiddy, Co. Cork, P43 PY77, Ireland",3524,201610
2016-12-16,"71 THE HEATH, BELGARD HEIGHTS, TALLAGHT DUBLIN 24",Dublin 24,5,320000.0,0,0,1,,53.2993685,-6.378232199999999,64,"71 The Heath, Belgard Heights, Dublin, D24 W95F, Ireland",7085,201612
2011-05-11,"36 Fairfield Road, Farranree, Cork",,3,80000.0,0,0,1,,51.9159614,-8.486042,64,"36 Fairfield Rd, Farranree, Cork, T23 H4F4, Ireland",3449,201105
2017-06-21,"SOGHER, EMYVALE, CO MONAGHAN",,17,136000.0,0,0,1,,54.3457527,-6.9963544,58,"Sogher, Hillside, Co. Monaghan, Ireland",595,201706
2020-06-04,"25 ORCHARD DRIVE, STAMULLEN, COUNTY MEATH",,16,337000.0,0,0,1,,53.63023,-6.26834,57,"Stamullin, Stamullen, Co. Meath, Ireland",880,202006
2019-07-11,"41 WESTGATE, AUGUSTINE STREET, DUBLIN 8",Dublin 8,5,63400.0,1,0,1,,53.3437372,-6.2765562,65,"West Gate, St Augustine St, Saint Catherine's, Dublin 8, Ireland",3651,201907
2015-10-12,"THE OLD BARRACKS, INCHIGEELAGH, BARRACKS",,3,395000.0,0,0,1,,51.8424464,-9.1264323,57,"Inchigeelagh, Co. Cork, Ireland",400,201510
2020-11-08,"TEENAGH, BALLINEEN, WEST CORK",,3,250000.0,0,0,1,,51.75196769999999,-9.0220325,58,"Teenah, Carrigmore, Co. Cork, Ireland",352,202011
2016-10-28,"34 KNOCKMORE RD, ARKLOW, WICKLOW",,25,230000.0,0,0,1,,52.7860954,-6.171592899999999,64,"34 Knockmore, Knockanrahan Upper, Arklow, Co. Wicklow, Y14 RT27, Ireland",4453,201610
2016-02-11,"13 RIVERWALK, CASTLEREA, ROSCOMMON",,19,40000.0,0,0,1,,53.7686571,-8.4924537,57,"Demesne, Castlerea, Co. Roscommon, Ireland",366,201602
2019-06-27,"12 THE HEIGHTS, MOUNT HAMILTON, CARRICK ROAD",,14,220264.32,0,1,0,,37.3418834,-121.6430017,41,"Mt Hamilton, CA 95140, USA",3944,201906
2015-04-14,"20 CARLETON VILLAGE, YOUGHAL, CORK",,3,64000.0,0,0,1,,51.9477833,-7.847216399999999,64,"20 Carleton Village, Golf Links Rd, Youghal-Lands, Youghal, Co. Cork, P36 EN23, Ireland",2147,201504
2015-08-31,"SORRENTO HOUSE, 1 SORRENTO TERRACE, SORRENTO ROAD",,5,10000000.0,0,0,1,,53.2707426,-6.0928605,62,"Sorrento Terrace, Sorrento Rd, Dalkey, Co. Dublin, Ireland",6924,201508
2013-10-15,"141 Comeragh Road, Drimnagh, Dublin 12",Dublin 12,5,175000.0,0,0,1,,53.328044,-6.3265505,64,"141 Comeragh Rd, Drimnagh, Dublin, D12 H592, Ireland",2743,201310
2013-10-12,"32 ORMOND KEEPE, O RAHILLY ST, NENAGH",,21,83000.0,0,0,1,,52.8667178,-8.2019877,64,"32 Ormond Keep, Nenagh North, Nenagh, Co. Tipperary, E45 E522, Ireland",5459,201310
2015-09-15,"ST JOSEPH'S, KILLEA ROAD, DUNMORE EAST",,22,250000.0,0,0,1,,52.1590144,-6.9982985,63,"Killea Rd, Co. Waterford, Ireland",5904,201509
2018-04-13,"220 THE KESTRAL, JACOBS ISLAND, BLACKROCK",,3,176000.0,0,0,1,,52.822473642491516,-7.744852870130693,0,,0,201804
2017-11-20,"THE COTTAGE, BALLINAHALLA, CLOGHEEN",,21,50000.0,0,0,1,,52.2770794,-7.9951028,57,"Clogheen Market, Clogheen, Co. Tipperary, Ireland",4895,201711
